Fuel Type Code,Station Name,Street Address,City,State,ZIP,Station Phone,lat,lon,Date Last Confirmed,Hydrogen Status Link,NG Vehicle Class,E85 Blender Pump,EV Connector Types
LPG,Irish Propane,70 Katherine St,Buffalo,NY,14210,716-852-3335,42.8594,-78.858933,2014-04-04,,,,
ELEC,Latitudes,2401 Highway 528,Rio Rancho,NM,87124,505-369-7777,35.21843,-106.663,2014-02-05,,,,J1772
ELEC,American Bush - Public Access,2630 S 300 W,Salt Lake City,UT,84115,801-467-0700,40.7144199,-111.900105,2013-09-25,,,,J1772
ELEC,CITY OF SEATTLE,600 Pine St,Seattle,WA,98101,888-758-4389,47.6125141,-122.3354092,2014-08-11,,,,J1772
ELEC,Two Embarcadero Center,Two Embarcadero Center A Level Parking,San Franciso,CA,94111,800-663-5633,37.7950272,-122.3985003,2014-08-11,,,,J1772
ELEC,PARKWAY,721 Arch St,Philadelphia,PA,19106,888-758-4389,39.9528732,-75.1528625,2014-08-11,,,,J1772
ELEC,General Electric - Dallas Office,2508 Highlander Way,Carrollton,TX,75006,,32.9838,-96.845317,2014-04-04,,,,J1772
ELEC,Municipal Lot,38767 SE River St,Snoqualmie,WA,98065,888-998-2546,47.527427,-121.823532,2014-08-11,,,,J1772
LPG,U-Haul,15173 Brookpark Rd,Brookpark,OH,44142,216-676-4770,41.418059,-81.802714,2014-03-06,,,,
ELEC,GATEWAY TECH B,380 McCanna Pkwy,Burlington,WI,53105,888-758-4389,42.6727905,-88.2556,2014-08-11,,,,NEMA520 J1772
ELEC,NATIONAL GRID,104-160 Blackstone St,Providence,RI,2905,888-758-4389,41.8096008,-71.4088529,2014-08-11,,,,J1772
ELEC,San Francisco General Hospital Garage,2500 24th St,San Francisco,CA,94110,415-206-8770,37.753135,-122.404374,2012-12-31,,,,J1772
ELEC,Amazon - Obidos/Rufus,550 Terry Ave N,Seattle,WA,98109,888-998-2546,47.62395,-122.33707799999999,2014-08-11,,,,J1772
ELEC,Classic Cars Nissan,1513 Route 38,Hainesport,NJ,8036,609-267-2886,39.98225,-74.808612,2014-04-21,,,,J1772
LPG,U-Haul,2722 N Watkins,Memphis,TN,38127,901-353-2051,35.199728,-90.007121,2014-08-05,,,,
ELEC,"Walgreens - Clinton, UT #2519",1962 W 1800 N,Clinton,UT,84041,800-663-5633,41.1398688,-112.0632572,2014-08-11,,,,J1772
ELEC,MERCER ISLAND,8236 SE 24TH STREET,Mercer Island,WA,98040,888-758-4389,47.5900154,-122.2285461,2014-08-11,,,,NEMA520 J1772
ELEC,NATIONAL GRID,997 Loudon Rd,Cohoes,NY,12047,888-758-4389,42.770945,-73.753012,2014-08-11,,,,J1772
LPG,AmeriGas,1706 Fairgrounds Dr,Mountain Home,AR,72653,870-425-2121,36.3218571,-92.3838926,2014-04-04,,,,
BD,East Side Travel Plaza,607 Gateway Dr,East Grand Forks,MN,56721,218-773-4345,47.9375198,-97.0145484,2014-03-06,,,,
ELEC,AUTO CLUB GROUP,783 S Orlando Ave,Winter Park,FL,32789,888-758-4389,28.5909042,-81.3660965,2014-08-11,,,,NEMA520 J1772
CNG,Greater Richmond Transit Co,301 E Belt Blvd,Richmond,VA,23224,800-920-1166,37.50673099999999,-77.47908,2014-08-05,,HD,,
ELEC,Ehrlich Nissan,2625 25th Ave,Greeley,CO,80634,970-353-5333,40.3946842,-104.7220636,2014-04-21,,,,J1772 CHADEMO
ELEC,Outpost Solar - Mines Road,1905 Mines Road,Pulaski,TN,38478,888-998-2546,35.210144,-87.054365,2014-08-11,,,,J1772
CNG,SDG&E - Northern (Carlsbad),602 Cannon Rd,Carlsbad,CA,92008,213-244-5681,33.1336848,-117.3321232,2014-05-02,,LD,,
ELEC,CITYZEPHYRHILLS,5335 Eighth St,Zephyrhills,FL,33542,888-758-4389,28.2352886,-82.1812439,2014-08-11,,,,NEMA520 J1772
ELEC,Atlantic Nissan,205 Sunrise Hwy,West Islip,NY,11795,631-587-0700,40.720647,-73.304128,2014-04-21,,,,J1772
LPG,U-Haul,157 E 3rd St,Williamsport,PA,17701,570-326-5161,41.242703,-76.998402,2014-08-05,,,,
ELEC,Dan Wilder Nissan,97 Deer Park Rd,Port Angeles,WA,98362,360-452-9268,48.102884,-123.342597,2014-04-21,,,,J1772
LPG,Sierra Propane,447 E Main St,Springerville,AZ,85938,928-333-5550,34.1328336,-109.2809265,2013-02-28,,,,
ELEC,Port of San Diego-Imperial Beach Parking Lot,"3165 Pacific Highway, Palm Avenue & Seacoast Drive",Imperial Beach,CA,91932,888-998-2546,32.5839,-117.131718,2014-08-11,,,,J1772
E85,Western Convenience Store,2387 W 72nd Ave,Denver,CO,80221,303-429-5754,39.8276368,-105.0152257,2013-10-31,,,FALSE,
E85,Kroger #587,3939 Frankford Rd,Dallas,TX,75287,972-662-1000,32.9982319,-96.8460873,2014-03-06,,,FALSE,
ELEC,THE BOEING CO,2060 E.Imperial Highway,El Segundo,CA,90245,888-758-4389,33.9283012,-118.3896499,2014-08-11,,,,J1772
ELEC,Kroger Store #518,5665 E. Mockingbird,Dallas,TX,75206,888-998-2546,32.837337,-96.770536,2014-08-11,,,,J1772
E85,Marathon,323 Sagamore Pkwy,Lafayette,IN,47904,765-447-3827,40.420134,-86.857658,2014-07-02,,,FALSE,
E85,Mobil On the Run,1710 N Bishop Ave,Rolla,MO,65401,573-364-5404,37.9583377,-91.7728715,2014-06-03,,,FALSE,
E85,Stop & Shop,312 1st Ave,Shakopee,MN,55379,952-496-3686,44.7981513,-93.5300144,2013-12-31,,,FALSE,
ELEC,15 LLC,"3575 Piedmont Road, Building 15",Atlanta,GA,30305,888-998-2546,33.852522,-84.380658,2014-08-11,,,,J1772
ELEC,Waikiki Sand Villa,2375 Ala Wai Blvd,Honolulu,HI,96815,808-922-4744,21.278842,-157.823158,2014-05-02,,,,J1772
E85,Holbrook T & C Citgo,5665 Sunrise Hwy,Holbrook,NY,11741,631-567-0576,40.7683139,-73.071263,2014-04-04,,,FALSE,
E85,Watonwan Farmers Service Co,702 E 14th St,Blue Earth,MN,56013,507-526-2100,43.6304107,-94.0939487,,,,FALSE,
E85,Thorntons #307,110 W Devon Ave,Wood Dale,IL,60191,630-616-0993,41.992429,-87.980958,2013-10-31,,,FALSE,
ELEC,Loyola University - New Orleans,7214 Saint Charles Ave,New Orleans,LA,70115,,29.9371899,-90.1268944,2014-04-21,,,,J1772
CNG,Con Edison - College Point Service Center,124-15 31st Ave,Queens,NY,11354,718-321-4608,40.7678,-73.845925,2014-04-04,,MD,,
ELEC,RENAISSANCE TWR,1201 Pacific Ave,Dallas,TX,75223,888-758-4389,32.7819816,-96.8019686,2014-08-11,,,,J1772
ELEC,Piolax,139 Etowah Industrial Court,Canton,GA,30114,888-998-2546,34.2455859,-84.471847,2014-08-11,,,,J1772
ELEC,Court Street Ford,558 William Latham Sr Dr,Bourbonnais,IL,60914,815-939-9600,41.161794,-87.885165,2013-12-31,,,,J1772
BD,Piedmont Biofuels - Carrboro Public Works,100 Public Works Dr,Carrboro,NC,27510,919-321-8260,35.939414,-79.056994,2014-07-02,,,,
ELEC,Roush - Naples,3538 Plover Ave,Naples,FL,34117,888-998-2546,26.15823,-81.674971,2013-11-25,,,,J1772
E85,Super Pantry #50,1940 S MacArthur Blvd,Springfield,IL,62704,217-522-0807,39.7795424,-89.6682571,2013-10-31,,,FALSE,
LPG,U-Haul,75 Division St,Danbury,CT,6810,203-794-9435,41.391202,-73.458418,2014-04-04,,,,
ELEC,Brown & Howell LLC Sunbrite Corner,1590 E Bethany Home Road,Phoenix,AZ,85014,888-998-2546,33.5239431,-112.0478898,2014-08-11,,,,J1772
ELEC,Ken Ganley Nissan,5180 Montville Dr,Medina,OH,44256,330-721-0500,41.134257,-81.793779,2014-04-21,,,,J1772
ELEC,KIRKLAND,348 Kirkland Ave,Kirkland,WA,98033,888-758-4389,47.6757469,-122.2029724,2014-08-11,,,,NEMA520 J1772
LPG,Blossman Gas Inc,102 Mississippi Dr,Waynesboro,MS,39367,601-735-2522,31.6639264,-88.6283224,2014-06-03,,,,
LPG,Ferrellgas,310 Morrow Rd,Sand Springs,OK,74063,918-245-6617,36.1336046,-96.1179891,2014-08-05,,,,
ELEC,Honda Motorwerks,500 4th St,LaCrosse,WI,54601,608-784-9280,43.808262,-91.252255,2013-11-30,,,,J1772
LPG,Ron's Car Care & Propane Services,1241 E Central Ave,Miamisburg,OH,45342,937-866-4925,39.6403804,-84.2657791,2014-06-03,,,,
ELEC,SCANSOURCE,6 Logue Ct,Greenville,SC,29615,888-758-4389,34.8554115,-82.2476654,2014-08-11,,,,NEMA520 J1772
E85,Holiday Stationstore #3558,241 US Highway 8,Almena,WI,54805,715-357-3957,45.4096385,-92.0345747,2013-10-31,,,FALSE,
E85,Meijer Gas #253,7149 E Saginaw St,East Lansing,MI,48823,517-885-9029,42.7704045,-84.41940149999999,2014-05-02,,,FALSE,
E85,Kroger Fuel Center #355,3760 Paxton Ave,Cincinnati,OH,45209,513-871-4142,39.1445187,-84.43012089999999,2014-03-06,,,FALSE,
E85,Suzy-Q's Fast Stop,202 Emminga Rd,Golden,IL,62339,217-696-2777,40.108233,-91.028344,2013-10-31,,,FALSE,
LPG,AmeriGas,1118 E 5th St,Hawthorne,NV,89415,775-945-3335,38.5244559,-118.6169775,2013-02-28,,,,
ELEC,Round Rock Nissan,3050 N IH-35,Round Rock,TX,78681,512-244-8500,30.54205,-97.69265,2014-04-21,,,,J1772
ELEC,Grapevine Recreational Area,Daltons Drive,Grapevine,TX,76051,888-998-2546,32.979103,-97.054467,2014-08-11,,,,J1772
E85,Kwik Trip #662,3145 Dodd Rd,Eagan,MN,55121,651-405-8543,44.843626,-93.12358599999999,2014-05-02,,,FALSE,
ELEC,Roberts Motors,4350 N Alby St,Alton,IL,62002,618-466-7220,38.9217295,-90.1795597,2013-04-30,,,,J1772
CNG,AMP Americas,1606 Exchange Pkwy,Waco,TX,76712,312-300-6700,31.5008835,-97.1734173,2014-07-21,,HD,,
BD,Propel Fuels - 76,1850 E Holt Blvd,Ontario,CA,91761,909-467-1809,34.0631733,-117.6113105,2013-11-30,,,,
ELEC,Lafontaine Nissan,2530 E Highland Rd,Highland,MI,48356,248-887-8900,42.652932,-83.580487,2014-04-21,,,,J1772
LPG,Ferrellgas,1313 Eisenhower Rd,Norfolk,NE,68701,402-895-2344,42.0616543,-97.4269508,2014-06-03,,,,
ELEC,San Joaquin Valley Air Pollution Control District,1990 E Gettysburg Ave,Fresno,CA,93726,559-230-6000,36.801411,-119.7881,2013-11-25,,,,J1772
ELEC,Nemet Motors,153-03 Hillside Ave,Jamaica,NY,11432,718-523-5858,40.7075168,-73.8045108,2014-04-21,,,,J1772
ELEC,Mesa Main Library,64 E. 1st Street,Mesa,AZ,85201,888-998-2546,33.417273,-111.830484,2014-08-11,,,,J1772
ELEC,Napleton Nissan,1301 Indianapolis Blvd,Schererville,IN,46375,219-865-3800,41.4976735,-87.4709712,2014-04-21,,,,J1772
ELEC,"Spectrum Court, LLC",15433 N. Tatum Blvd.,Phoenix,AZ,85032,888-998-2546,33.62729,-111.977262,2014-08-11,,,,J1772
ELEC,Nissan of Oakland,2735 Broadway,Oakland,CA,94611,510-588-2200,37.820419,-122.261344,2014-06-03,,,,J1772 CHADEMO
ELEC,UMKC,5001 Oak St,Kansas City,MO,64110,888-758-4389,39.035998,-94.581594,2014-08-11,,,,J1772
ELEC,Umstead Hotel and Spa,100 Woodland Pond Dr,Cary,NC,27513,866-877-4141,35.82973,-78.7646,2014-08-05,,,,J1772
ELEC,Nissan of Bergenfield,318 S Washington Ave,Bergenfield,NJ,7621,201-385-3600,40.9172683,-73.9972053,2014-04-21,,,,J1772
ELEC,Peruzzi Nissan,165 Lincoln Hwy,Fairless Hills,PA,19030,215-943-6200,40.181931,-74.863403,2014-04-21,,,,J1772
E85,Meijer Gas #167,2752 Alison Ln,Jeffersonville,IN,47130,812-218-6629,38.322867,-85.70947699999999,2014-05-02,,,FALSE,
ELEC,Westar Energy - Lawrence Energy Center,1250 N 1800 Rd,Lawrence,KS,66049,,39.0067949,-95.269499,2013-11-30,,,,J1772
CNG,Con Edison - Eastview Service Center,315 Old Saw Mill River Rd,Valhalla,NY,10595,914-789-6723,41.08338699999999,-73.82378790000001,2014-04-04,,MD,,
ELEC,Serramonte Nissan,650 Serramonte Blvd,Colma,CA,94014,650-994-1661,37.675806,-122.461273,2014-04-21,,,,J1772
LPG,Triple B Home Center,1315 S Hamilton St,Sullivan,IL,61951,217-728-2349,39.5857114,-88.6091442,2013-02-28,,,,
ELEC,TOWNOFHEMPSTEAD,Lido Blvd,Point Lookout,NY,11561,888-758-4389,40.5924759,-73.5844193,2014-08-11,,,,NEMA520 J1772
ELEC,INTUIT INC,21215 Burbank Blvd,Los Angeles,CA,91367,888-758-4389,34.1738849,-118.5931163,2014-08-11,,,,J1772
CNG,Domino Express #9,1303 W 3rd St,Elk City,OK,73644,,35.4117249,-99.419721,2014-08-05,,HD,,
ELEC,The Mill Casino,3201 Tremont Ave,North Bend,OR,97459,800-953-4800,43.3946676,-124.2195544,2014-05-02,,,,J1772
LPG,U-Haul,1011 Highway 14,Lake Charles,LA,70601,337-436-5014,30.2250294,-93.1800662,2014-04-04,,,,
ELEC,Coggin Nissan at the Avenues,10859 Philips Hwy,Jacksonville,FL,32256,904-880-3000,30.1725503,-81.5452976,2014-05-02,,,,J1772
LPG,Heritage Propane,4504 E Lamar Alexander Pkwy,Walland,TN,37886,865-977-6777,35.7477416,-83.8371242,2014-08-05,,,,
ELEC,POMONA COLLEGE,E 1st St,Claremont,CA,91711,888-758-4389,34.0948181,-117.7109222,2014-08-11,,,,NEMA520 J1772
CNG,AT&T,100 W Alondra Rd,Gardena,CA,90248,,33.884129,-118.277308,2013-07-31,,MD,,
ELEC,NATIONAL GRID,222 Richmond St,Providence,RI,2903,888-758-4389,41.819064,-71.408276,2014-08-11,,,,J1772
E85,Vandenberg Air Force Base,306 8th St,Santa Barbara,CA,93437,,34.7232998,-120.5356382,2014-08-05,,,FALSE,
CNG,Encana - Plano,5851 Legacy Cir,Plano,TX,75024,,33.0806397,-96.8227015,2014-07-03,,MD,,
ELEC,CITYOFSANTAROSA,97 D St,Santa Rosa,CA,95404,888-758-4389,38.4394132,-122.7112405,2014-08-11,,,,NEMA520 J1772
ELEC,Spartanburg Municipal Parking Garage,130 E Saint John St,Spartanburg,SC,29306,843-743-6736,34.9520415,-81.9315933,2012-07-31,,,,J1772
E85,Elgin One Stop,501 N 2nd St,Elgin,NE,68636,402-843-2100,41.9801347,-98.08454449999999,2014-06-03,,,TRUE,
ELEC,Chatsworth Metrolink Station,10046 Old Depot Plaza Rd,Chatsworth,CA,91311,800-371-5465,34.2533868,-118.5988554,2012-12-31,,,,J1772
ELEC,Embassy Suites Frisco Hotel & Convention Center --- South Parking Lot,7600 John Q Hammons Drive,Frisco,TX,75034,888-998-2546,33.099784,-96.81732,2014-08-11,,,,J1772
ELEC,CARCHARGING,1 Pennsylvania Plaza,New York,NY,10119,888-758-4389,40.75147,-73.9927795,2014-08-11,,,,NEMA520 J1772
ELEC,EV CHARGER,64-74 NV-592,Las Vegas,NV,89109,888-758-4389,36.1153633,-115.1699724,2014-08-11,,,,J1772
BD,Forest Service - Cleveland National Forest,Cleveland National Forest,Santa Ysabel,CA,92070,,33.212382,-116.710639,2014-08-05,,,,
BD,City of Phoenix - Fire Station #59,1111 S 65th Ave,Phoenix,AZ,85043,,33.4379359,-112.1982409,2013-10-31,,,,
ELEC,Google,1842 N Shoreline Blvd,Mountain View,CA,94043,,37.41968918,-122.0785,2013-11-30,,,,J1772
CNG,NGV Solutions LLC,5495 Lakeland Dr,Flowood,MS,39232,601-982-1244,32.350721,-90.030272,2014-04-04,,HD,,
ELEC,OUC,65 W Washington St,Orlando,FL,32801,888-758-4389,28.544092,-81.380449,2014-08-11,,,,NEMA520 J1772
E85,Kroger Fuel Center #844,175 Lancaster Pike,Circleville,OH,43113,740-477-5700,39.5989347,-82.93229889999999,2014-03-06,,,FALSE,
ELEC,MBTA,280 Ivory St,Braintree,MA,2184,888-758-4389,42.205989,-71.00079199999999,2014-08-11,,,,J1772
ELEC,Hilton La Jolla Torrey Pines,10950 North Torrey Pines Road,La Jolla,CA,92037,888-998-2546,32.9015358,-117.2437714,2014-08-11,,,,J1772
E85,Kum & Go #240,530 North Ave,Norwalk,IA,50211,515-981-0617,41.475025,-93.68186999999999,2014-03-06,,,FALSE,
ELEC,John Elway Chevrolet - Voltec,5200 S Broadway,Englewood,CO,80113,,39.621219,-104.986672,2013-12-31,,,,NEMA520
E85,Citgo - Tiger Gas,7901 S Natchez,Burbank,IL,60459,708-430-3895,41.748129,-87.782278,2013-10-31,,,FALSE,
ELEC,Benton Nissan,1834 US Highway 78 E,Oxford,AL,36203,256-831-8882,33.6148266,-85.7999231,2014-05-02,,,,J1772
ELEC,350GREEN,1251 US Highway 31 N,Greenwood,IN,46142,888-758-4389,39.6338234,-86.1242065,2014-08-11,,,,J1772
ELEC,Concordville Nissan,452 Wilmington W Chester Pike,Glen Mills,PA,19342,610-459-8900,39.8658371,-75.5442656,2014-04-21,,,,J1772
BD,National Grid - Westborough,25 Research Dr,Westborough,MA,1581,,42.2872382,-71.5770683,2014-04-04,,,,
HY,Kaneohe Marine Base,370 3rd St,Kaneohe Bay,HI,96863,,21.44651,-157.76177,2014-08-05,,,,
ELEC,FREEDOM NISSAN,1095 Shelburne Road,South Burlington,VT,5403,888-758-4389,44.4388342,-73.2109058,2014-08-11,,,,CHADEMO
E85,Speedway #5491,18799 Fort St,Riverview,MI,48193,734-282-4196,42.170847,-83.188294,2014-03-06,,,FALSE,
ELEC,El Dorado County Government Center,2850 Fairlane Ct,Placerville,CA,95667,530-621-5300,38.72799,-120.828,2013-12-31,,,,J1772
ELEC,Santa Clara University - Leavey Lot,500 S El Camino Real,Santa Clara,CA,95050,888-758-4389,37.34946442,-121.9343033,2012-07-31,,,,NEMA520 J1772
LPG,Martin LP Gas,5553 Highway 300,Longview,TX,75604,903-759-5250,32.5804954,-94.812316,2013-02-28,,,,
ELEC,Crowley Nissan,1451 Farmington Ave,Bristol,CT,6010,860-944-7766,41.6992932,-72.8956037,2014-04-21,,,,J1772
LPG,AmeriGas,163 Railroad Ave SW,New Albin,IA,52160,563-544-4200,43.4959947,-91.2917817,2014-04-04,,,,
LPG,Ferrellgas - Andrews Shell,9060 W Northern Ave,Glendale,AZ,85305,602-278-8511  877-234-1722,33.552254,-112.254324,2013-05-31,,,,
E85,United Western Co-op,3165 US Highway 30,Woodbine,IA,51579,712-647-2511,41.727864,-95.702833,2014-04-04,,,TRUE,
ELEC,UM PTS,646 W Pratt St,Baltimore,MD,21201,888-758-4389,39.2863138,-76.6251238,2014-08-11,,,,NEMA520 J1772
LPG,U-Haul,1420 Blizzard Dr,Parkersburg,WV,26101,304-485-6220,39.243167,-81.552325,2014-07-02,,,,
ELEC,Panera Bread - Tesla,3260 Niles Rd,Saint Joseph,MI,49085,877-798-3752,42.056717,-86.456695,2014-04-21,,,,TESLA
E85,Kwik Trip #485,6 W Hidden Tr,Elkhorn,WI,53121,262-723-7179,42.694575,-88.54249,2014-05-02,,,FALSE,
LPG,Herring Gas Co,309 S 10th Ave,Laurel,MS,39440,601-428-7185,31.687018899999998,-89.1386445,2014-06-03,,,,
LNG,Burrtec Waste,9820 Cherry Ave,Fontana,CA,92335,,34.07585,-117.4889191,2014-05-02,,HD,,
BD,DC Department of Public Works - MPD 3rd District,1620 V St NW,Washington,DC,20009,,38.917766,-77.037726,2013-10-31,,,,
E85,Fanco,103 Comfort Dr,Jacksonville,IL,62650,217-243-3400,39.6923323,-90.2287682,2013-10-31,,,FALSE,
LPG,Penman Conoco Service,609  E Main St,Knox City,TX,79529,940-658-3513,33.4180937,-99.8129655,2013-02-28,,,,
ELEC,CARCHARGING,610 Exterior St,Bronx,NY,10451,888-758-4389,40.8205131,-73.9301496,2014-08-11,,,,J1772 NEMA520
ELEC,WEST GERMAN BMW,500 Pennsylvania Ave,Fort Washington,PA,19034,888-758-4389,40.134012,-75.2074839,2014-08-11,,,,J1772
LNG,Clean Energy - Jacksonville,440-1 Lane Ave S,Jacksonville,FL,32254,866-809-4869,30.3243386,-81.7518892,2014-04-04,,HD,,
ELEC,Pearson Ford,10650 N Michigan Rd,Zionsville,IN,46077,317-873-3333,39.9416571,-86.2372927,2013-07-25,,,,J1772
ELEC,IRL WEST RAMP,909 E 2nd Ave,Coralville,IA,52241,888-758-4389,41.682581,-91.5626321,2014-08-11,,,,NEMA520 J1772
ELEC,ABBERLYCROSSING,9698 Patriot Crossing,Ladson,SC,29456,888-758-4389,32.9555017,-80.1166499,2014-08-11,,,,J1772
LPG,Port Washington Street Department,333 N Moore Rd,Port Washington,WI,53074,,43.3875661,-87.879509,2014-06-03,,,,
E85,Qik-n-EZ #62,1607 Morrissey Dr,Bloomington,IL,61704,309-661-0524,40.4589719,-88.9699779,2013-12-31,,,FALSE,
ELEC,"Walgreens - Lutherville, MD #12847",1801 York Road,Lutherville,MD,21093,800-663-5633,39.4306377,-76.6208506,2014-08-11,,,,J1772
ELEC,350GREEN,6170 W. Grand,Gurnee,IL,60031,888-758-4389,42.3897247,-87.955513,2014-08-11,,,,J1772
ELEC,Kroger Store #308,11003 Shadow Creek Pkwy,Pearland,TX,77584,888-998-2546,29.583886,-95.387923,2014-08-11,,,,J1772
E85,Beaufort Marine Corps Air Station,Moore St,Beaufort,SC,29904,,32.461238,-80.710684,2014-08-05,,,FALSE,
ELEC,Bloomingdale Court Shopping Center,396 W Army Trail Rd,Bloomingdale,IL,60108,847-577-3572,41.938396,-88.112679,2013-12-31,,,,J1772
CNG,New York State Department of Transportation,730A Chemung St,Horseheads,NY,14845,,42.157555,-76.829942,2014-04-04,,LD,,
E85,Pawnee Corner - Shell - Sunshine Energy,1535 E Pawnee,Wichita,KS,67216,316-295-4535,37.649569,-97.318971,2013-09-30,,,FALSE,
ELEC,Lynchburg Nissan,18588 Forest Rd,Forest,VA,24551,434-385-7733,37.386097,-79.244054,2014-05-02,,,,J1772
LPG,INDOT - 71st Street Maintenance Unit,7160 Lafayette Rd,Indianapolis,IN,46278,,39.882517,-86.294341,2013-08-31,,,,
ELEC,Waikiki Beach Marriott,2552 Kalakaua Ave,Honolulu,HI,96815,888-833-2148  808-922-6611,21.2731229,-157.822788,2014-05-02,,,,J1772
LPG,O'Neal Gas,901 N Louisiana St,Plain Dealing,LA,71064,318-326-5556,32.9125268,-93.7047267,2014-04-04,,,,
CNG,Clean Energy - Fontana Truck Stop,14226 Valley Blvd,Fontana,CA,92335,866-809-4869,34.0708706,-117.4943464,2014-05-02,,HD,,
ELEC,SPARTAN STORES,2260 Gezon Parkway,Wyoming,MI,49519,888-758-4389,42.8607593,-85.716702,2014-08-11,,,,NEMA520 J1772
ELEC,CELEBRATION,1999 Central Park Dr,Okemos,MI,48864,888-758-4389,42.727346,-84.421766,2014-08-11,,,,J1772
ELEC,Woodland Gateway Shopping Center,County Rd 102 & Maxwell Ave,Woodland,CA,95776,916-442-4600,38.668736,-121.7287,2013-12-31,,,,NEMA520 J1772
ELEC,NATIONAL GRID,Suny at Albany,Albany,NY,12222,888-758-4389,42.6883686,-73.8230666,2014-08-11,,,,J1772
ELEC,WHOLE FOODS MKT,1150 Ocean Ave,San Francisco,CA,94112,888-758-4389,37.7238308,-122.4547812,2014-08-11,,,,J1772
ELEC,Loring Ramp,1330 Nicollet Ave,Minneapolis,MN,55403,612-455-0702,44.9698324,-93.2778249,2014-03-06,,,,NEMA520
E85,Cenex - Ampride C-Store,409 E 4th St,Ainsworth,NE,69210,402-387-0144,42.5498796,-99.8580685,2014-06-03,,,FALSE,
E85,Stop In Food Stores #67,1220 Seminole Tr,Charlottesville,VA,22901,434-973-1005,38.070131,-78.485182,2013-11-30,,,FALSE,
ELEC,NRG eVgo - Walgreens Freedom Station,130 N Oakridge Dr,Hudson Oaks,TX,76087,877-455-3833,32.75774,-97.71054,2014-07-03,,,,NEMA520 J1772 CHADEMO
E85,FSC Mart - Godfather's,408 6th St,Corning,IA,50841,641-322-3488,40.9880799,-94.7332596,2014-04-04,,,FALSE,
ELEC,Lodi Animals Service and Shelter,1345 W Kettleman Ln,Lodi,CA,95242,209-333-6815,38.1155339,-121.2889381,2013-05-31,,,,J1772
ELEC,I-64 East Rest Stop,I-64 E and VA-155,Providence Forge,VA,23140,800-367-7623,37.499039,-77.04316,2013-12-31,,,,NEMA520
BD,Daily's #7111,5272 Cane Ridge Rd,Nashville,TN,37013,615-731-4063,36.045435,-86.6613932,2014-08-05,,,,
ELEC,Suntek Business Center - NPM,9450 SW Barnes Rd,Portland,OR,97086,888-998-2546,45.508692,-122.774947,2014-08-11,,,,J1772
LPG,U-Haul,1900 E Milwaukee St,Janesville,WI,53545,608-756-3980,42.6919254,-88.9995148,2013-10-31,,,,
ELEC,Fairview Town Hall,372 Town Place,Fairview,TX,75069,888-998-2546,33.13232,-96.64707,2014-08-11,,,,J1772
ELEC,Wright Automotive Group,10520 Perry Hwy,Wexford,PA,15090,724-935-4646,40.610479,-80.053036,2014-04-21,,,,J1772
ELEC,Bert Ogden Nissan,721 N Jackson Rd,McAllen,TX,78501,956-631-6666,26.2067894,-98.203314,2014-04-21,,,,J1772
E85,Pennsylvania Turnpike North Somerset Service Plaza - Sonoco,169 N Plaza Access Rd,Somerset,PA,15501,814-444-1746,40.00178,-79.046458,2014-08-05,,,FALSE,
ELEC,Maroone Nissan of Pembroke Pines,8890 Pines Blvd,Pembroke Pines,FL,33024,954-433-3400,26.007358,-80.263072,2014-05-02,,,,J1772
ELEC,SIEMENS,200-398 Technology Dr,Alpharetta,GA,30005,888-758-4389,34.1181412,-84.2180176,2014-08-11,,,,NEMA520 J1772
ELEC,Staunton Nissan,297 Lee Jackson Hwy,Staunton,VA,24401,540-886-3465,38.1185725,-79.0687636,2014-04-21,,,,J1772
ELEC,City of Raleigh - Police Fleet Station,6716 Six Forks Rd,Raleigh,NC,27601,919-996-3030,35.872238,-78.641278,2014-07-03,,,,NEMA520 J1772
CNG,GreenTeam - San Jose CA,1333 Oakland Rd,San Jose,CA,95112,800-920-1166,37.3685305,-121.8930506,2014-05-02,,MD,,
E85,Meijer Gas #137,4901 State Route 26 E,Lafayette,IN,47905,765-449-9229,40.415445,-86.81237899999999,2014-05-02,,,FALSE,
LPG,U-Haul,4767 Hamilton Ave,Cincinnati,OH,45223,513-542-6300,39.178939,-84.545326,2014-03-06,,,,
E85,BP,5830 E 10 Mile Rd,Warren,MI,48091,586-759-4884,42.476809,-83.045964,2014-07-03,,,FALSE,
E85,Kum & Go #155,21510 Highway 365 N,Maumelle,AR,72113,501-851-2536,34.8838622,-92.3921179,2014-03-06,,,FALSE,
ELEC,Camden County Regional Library - Bellmawr Branch,35 East Browning Road,Bellmawr,NJ,8031,888-998-2546,39.8665027,-75.0775904,2014-08-11,,,,J1772
ELEC,ACUA - Wastewater: 1801 Absecon Blvd (Route 30),1801 Absecon Blvd,Atlantic City,NJ,8401,888-998-2546,39.382109,-74.449067,2014-08-11,,,,J1772
ELEC,FARMERS BANK,1590 4th St,Minden,NV,89423,888-758-4389,38.9536037,-119.7635117,2014-08-11,,,,J1772
ELEC,CSU FULLERTON,800 N. State College,Fullerton,CA,92831,888-758-4389,33.8794587,-117.883179,2014-08-11,,,,CHADEMO
ELEC,NATIONAL GRID,257 College of Nanoscale Science and EngineeringFuller Rd,Albany,NY,12203,888-758-4389,42.6899118,-73.8317353,2014-08-11,,,,J1772
ELEC,Claire's on Cedros,246 North Cedros Avenue,Solana Beach,CA,92075,888-998-2546,32.994847,-117.271096,2014-08-11,,,,J1772
ELEC,Port City Nissan,120 Spaulding Tpke,Portsmouth,NH,3801,603-431-6500,43.0772236,-70.7851839,2014-04-21,,,,J1772
ELEC,Progress Energy - Asheville,555 Brevard Rd,Asheville,NC,28806,,35.55555,-82.601481,2012-07-31,,,,J1772
ELEC,Ameren Missouri,1901 Chouteau Ave,St. Louis,MO,63166,,38.622711,-90.209564,2014-06-03,,,,NEMA520 J1772
ELEC,UCR,900 University Ave,Riverside,CA,92507,888-758-4389,33.9700931,-117.3271078,2014-08-11,,,,J1772
ELEC,Hilton Garden Inn Midtown,97 10th St NW,Atlanta,GA,30309,404-524-4006,33.7819521,-84.3903089,2014-08-05,,,,NEMA520
LPG,Sunoco - Circle A Mart #111,1921 S Lube Way,Jasper,IN,47546,812-634-7827,38.364496,-86.9410089,2014-07-03,,,,
CNG,Apache Woodward,5101 Williams Ave,Woodward,OK,73801,713-296-7479,36.4059337,-99.3717023,2014-04-04,,MD,,
ELEC,Pacific View Mall,3295 E Main St,Ventura,CA,93003,805-642-5530,34.268,-119.2492,2013-12-31,,,,J1772
ELEC,MGE,1701 Monroe Street,Madison,WI,53711,888-758-4389,43.0662594,-89.415062,2014-08-11,,,,NEMA520 J1772
LPG,Veolia Environmental Services - Baltimore,2100 Huntingdon Ave,Baltimore,MD,21211,,39.313074,-76.620506,2012-01-31,,,,
ELEC,Garland Animal Control,600 Tower Street,Garland,TX,75040,888-998-2546,32.9064596,-96.6037203,2014-08-11,,,,J1772
ELEC,HY-VEE,3900 W 24th Pl,Lawrence,KS,66047,888-758-4389,38.9419594,-95.2893448,2014-08-11,,,,J1772
ELEC,Kleiver Armory,10000 NE 33rd Dr,Portland,OR,97211,888-998-2546,45.594995,-122.635197,2014-08-11,,,,J1772
E85,Agriland Fast Stop Express,1101 N Lincoln St,Knoxville,IA,50138,641-842-2116,41.3275018,-93.10946969999999,2014-04-04,,,FALSE,
ELEC,"Walgreens - Bel Air, MD #12748",1201 East Churchville Rd,Bel Air,MD,21014,800-663-5633,39.5416769,-76.3300768,2014-08-11,,,,J1772
E85,Meijer Gas #112,1990 W Main St,Troy,OH,45373,937-332-0529,40.0565432,-84.242228,2014-03-06,,,FALSE,
BD,Georgia Power,200 Miller St,Valdosta,GA,31907,,32.3683002,-84.9557253,2013-09-30,,,,
LPG,L&W Landscape,206 Troy-Schenectady Rd,Latham,NY,12110,518-783-8928,42.739613,-73.736467,2014-07-03,,,,
ELEC,BEAM CHARGING,127 E 83rd St,Manhattan,NY,10028,888-758-4389,40.7778702,-73.9571915,2014-08-11,,,,NEMA520 J1772
LPG,Suburban Propane,2929 Enon Rd,Enon,OH,45323,937-864-7327,39.883349,-83.9372659,2014-03-06,,,,
ELEC,STATION 1,801 9th St NW,Washington,DC,20001,888-758-4389,38.9003119,-77.0236038,2014-08-11,,,,J1772
E85,Flying J,4200 N I 90 Service Rd,Rapid City,SD,57709,605-342-5450,44.1037439,-103.1503175,2013-11-30,,,FALSE,
LNG,Blu LNG - Maverick Travel Plaza,2550 S 1990 W,West Haven,UT,84401,801-952-2943  801-977-7252,41.22028299999999,-112.027794,2014-07-03,,HD,,
CNG,Trillium - Shell Gas Station,4590 Fulton Industrial Blvd SW,Atlanta,GA,30336,678-741-5301,33.761355,-84.53591899999999,2014-08-05,,HD,,
ELEC,City of Palm Springs - Convention Center,277 Avenida Caballeros,Palm Springs,CA,92262,760-323-8214,33.8262181,-116.5380375,2013-12-31,,,,J1772
ELEC,Black Mountain Public Safety Building,102 Montreat Rd,Black Mountain,NC,28711,828-419-9350,35.619218000000004,-82.320192,2014-07-03,,,,J1772
ELEC,CNTYOFRIVERSIDE,3535 12th St,Riverside,CA,92501,888-758-4389,33.9775658,-117.375154,2014-08-11,,,,J1772
E85,Thorntons #64,3909 Highway 31E,Clarksville,IN,47129,812-283-7881,38.320919,-85.751467,2014-07-03,,,FALSE,
LPG,Jaysan Gas Service Inc,80 County Rd,East Freetown,MA,2717,508-763-2729,41.7572147,-70.9468373,2014-07-02,,,,
LPG,AmeriGas,331 S Houston Lake Rd,Warner Robins,GA,31088,478-953-3900,32.611953,-83.679773,2013-03-31,,,,
E85,Holiday Stationstore #317,2725 Campus Dr,Plymouth,MN,55441,763-551-2501,45.009465,-93.4490129,2014-04-04,,,FALSE,
ELEC,Naples Nissan,3640 Pine Ridge Rd,Naples,FL,34109,239-643-3800,26.2100255,-81.7441206,2014-05-02,,,,J1772
BD,Carl's Junior 76 Station,2140 N Nimitz Hwy,Honolulu,HI,96819,808-848-0480,21.3282018,-157.8858304,2014-05-02,,,,
E85,Kum & Go #880,Cimmaron Turnpike,Pawnee,OK,74058,918-454-2808,36.22478,-96.796792,2014-03-06,,,FALSE,
CNG,Trillium CNG,1120 E Paige Ave,Tulare,CA,93274,800-920-1166,36.183105,-119.330406,2014-08-05,,HD,,
CNG,Clean Energy - Peoria Disposal Co - Public Access,1113 N Swords Ave,West Peoria,IL,61604,866-809-4869,40.7020547,-89.64196129999999,2014-04-04,,HD,,
ELEC,11900 NE 1st Street Building G,"11900 NE 1st Street, Building G",Bellevue,WA,98007,888-998-2546,47.611519,-122.182197,2014-08-11,,,,J1772
ELEC,Temple University - Health Sciences Center,3412-28 N Carlisle St,Philadelphia,PA,19140,888-998-2546,40.005165,-75.1532359,2014-08-11,,,,J1772
ELEC,BEAM CHARGING,300 E 34th St,Manhattan,NY,10016,888-758-4389,40.7444153,-73.9754868,2014-08-11,,,,NEMA520 J1772
ELEC,BEVERLY HILLS,440 N Camden Dr,Beverly Hills,CA,90210,888-758-4389,34.0694251,-118.4044671,2014-08-11,,,,NEMA520 J1772
ELEC,LHS #1,1280 Johnson Ave,San Jose,CA,95129,888-758-4389,37.3000851,-122.0062201,2014-08-11,,,,J1772
LPG,Suburban Propane,10112 Harrison Rd,Harrison,OH,45030,513-367-4141,39.243408,-84.777768,2014-03-06,,,,
CNG,City of Phoenix,5204 E Thomas Rd,Phoenix,AZ,85018,,33.4806488,-111.9681422,2013-11-30,,HD,,
E85,Speedway #3766,7940 Brookville Rd,Indianapolis,IN,46239,317-351-8752,39.750608,-86.026916,2014-03-06,,,FALSE,
LPG,Peninsula Propane,1700 N Florida Mango Rd,West Palm Beach,FL,33409,,26.69901,-80.0776,2012-05-31,,,,
ELEC,Brickell Bay Tower,"1001 Brickell Bay Drive, Suite 130",Miami,FL,33131,888-998-2546,25.763679,-80.189569,2014-08-11,,,,J1772
ELEC,Newport Fashion Island,550 Newport Center Dr,Newport Beach,CA,92660,949-640-2916,33.6158612,-117.8711879,2012-12-31,,,,
E85,RB's Food Shop,100 N 3rd St,Humphrey,NE,68642,402-923-0286,41.6917634,-97.48446,2014-06-03,,,FALSE,
ELEC,CITYOFRIVERSIDE,3637 5th St,Riverside,CA,92501,888-758-4389,33.9845089,-117.3716379,2014-08-11,,,,J1772
ELEC,Kohl's Store #685 Tucson,5850 W Arizona Pavillions Dr,Tucson,AZ,85743,888-998-2546,32.354899,-111.087796,2014-08-11,,,,J1772
ELEC,Benton Co - Fairgrounds,110 SW 53rd Street,Corvallis,OR,97333,888-998-2546,44.566857,-123.312914,2014-08-11,,,,J1772
ELEC,CARCHARGING,200 SW 1st Avenue,Fort Lauderdale,FL,33301,888-758-4389,26.1202393,-80.1443329,2014-08-11,,,,NEMA520 J1772
E85,Chevron,2755 Clairmont Rd,Atlanta,GA,30329,404-321-2712,33.8375109,-84.311895,2013-07-31,,,FALSE,
ELEC,Courtesy Nissan,3700 N Point Dr,Stevens Point,WI,54481,715-341-2440,44.5402487,-89.5469867,2013-12-31,,,,J1772
ELEC,Sokol Blosser Winery,5000 Sokol Blosser Lane,Dundee,OR,97115,800-663-5633,45.2471771,-123.0480541,2014-08-11,,,,J1772
ELEC,East Community Center,700 Woodland Street,Nashville,TN,37206,888-998-2546,36.17203,-86.76222,2014-08-11,,,,J1772
E85,Federal Correctional Institution - Bennettsville,696 Muckerman Rd,Bennettsville,SC,29512,,34.6737527,-79.724586,2014-08-05,,,FALSE,
BD,Yocum Holiday #3871,2030 Eagle Creek Ln,Woodbury,MN,55129,651-998-1123,44.919239,-92.901783,2014-03-06,,,,
ELEC,Kum & Go #206,1725 NW 86th St,Clive,IA,50325,515-223-5367,41.6073949,-93.73591499999999,2014-04-21,,,,J1772
BD,Saxapahaw General Store,1735 Saxapahaw-Bethlehem Church Rd,Saxapahaw,NC,27340,336-376-5332,35.946531,-79.31833499999999,2014-07-02,,,,
ELEC,Garfield Park Library,2502 Shelby St,Indianapolis,IN,46203,888-235-4976,39.732171,-86.140045,2014-07-03,,,,J1772
E85,Dover Air Force Base,10th St,Dover,DE,19902,,39.1266755,-75.4767101,2014-08-05,,,FALSE,
ELEC,Eugene - Broadway Garage South,255 W. Broadway,Eugene,OR,97401,888-998-2546,44.049484,-123.095913,2014-08-11,,,,J1772
ELEC,White Parking Lot,108 Clinton St,Charlevoix,MI,49720,231-547-3273,45.3170474,-85.2589168,2014-06-03,,,,J1772
E85,BP,31331 S Wixom Rd,Wixom,MI,48393,248-624-0900,42.5234979,-83.5359591,2014-05-02,,,FALSE,
ELEC,PLUGNEVERYWHERE,12138 N Lamar Blvd,Austin,TX,78753,888-758-4389,30.3991227,-97.6794893,2014-08-11,,,,NEMA520 J1772
LPG,Dowdle Gas Co,38133 State Highway 75 S,Fyffe,AL,35971,256-659-4422,34.400583,-85.969372,2013-02-28,,,,
ELEC,CARCHARGING,400 W 12th St,New York,NY,10014,888-758-4389,40.73753749999999,-74.0098297,2014-08-11,,,,J1772
ELEC,HENNEPIN COUNTY,501-531 5th St N,Minneapolis,MN,55401,888-758-4389,44.9836162,-93.2785986,2014-08-11,,,,J1772
BD,Pacific Pride,19020 63rd Ave NE,Arlington,WA,98223,800-950-3835,48.1686092,-122.1459816,2014-03-06,,,,
LPG,Gresham Petroleum Co,415 Pershing Ave,Indianola,MS,38751,662-884-5002,33.4470758,-90.6454507,2014-06-03,,,,
ELEC,JOHNSON COUNTY,11811 S Sunset Dr,Olathe,KS,66061,888-758-4389,38.9147339,-94.7995987,2014-08-11,,,,J1772
ELEC,City of San Antonio - Houston Street Mid City Garage - 10th floor,240 E Houston St,San Antonio,TX,78205,888-469-5326,29.426049,-98.490216,2012-11-25,,,,NEMA520 J1772
LNG,Clean Energy - Port Wentworth,400 O Leary Rd,Port Wentworth,GA,31407,866-809-4869,32.1926096,-81.1909431,2014-04-04,,HD,,
HY,HydrogenFuel Station,335 Richland Street,Columbia,SC,29201,803-354-5720,34.006419,-81.051715,2012-10-30,,,,
CNG,New York State Department of Transportation,125 Parrish St,Canandaigua,NY,14424,,42.87721699999999,-77.281959,2014-04-04,,LD,,
E85,Breaker's #127,4801 E Palmetto St,Florence,SC,29506,843-667-0330,34.196796,-79.654695,2014-06-03,,,FALSE,
E85,Speedway #9593,2900 Richmond Rd,Lexington,KY,40509,859-266-4218,38.006297,-84.452435,2014-03-06,,,FALSE,
ELEC,Green Energy Outlet,575 Cooke St,Honolulu,HI,96813,888-758-4389,21.299654,-157.857132,2014-05-02,,,,
LPG,Shell,620 W Charter Way,Stockton,CA,95206,209-466-1901,37.9367676,-121.2956061,2014-05-02,,,,
LPG,U-Haul,1760 Park Ave,Lynchburg,VA,24501,434-528-3115,37.405828,-79.155661,2014-07-03,,,,
LPG,U-Haul,4375 Fulton Industrial Blvd SW,Atlanta,GA,30336,404-696-8817,33.766012,-84.5306279,2013-09-30,,,,
E85,FS Fast Stop,615 E Lincolnway,Morrison,IL,61270,815-772-7743,41.8073718,-89.957098,2013-10-31,,,FALSE,
ELEC,Clayton Lane Owner's Association,151 Detroit Street,Denver,CO,80204,888-998-2546,39.718799,-104.956794,2014-08-11,,,,J1772
E85,Yocum Holiday #3838,2500 Orleans St,Stillwater,MN,55082,651-439-0345,45.0428452,-92.7981453,2014-03-06,,,TRUE,
ELEC,Texas Nissan of Grapevine,1401 W State Highway 114,Grapevine,TX,76051,817-601-3600,32.9277067,-97.094121,2014-06-03,,,,J1772
LPG,AmeriGas,5981 Route 152,Wayne,WV,25570,304-525-4170  866-209-5581,38.221475,-82.442375,2014-07-02,,,,
ELEC,City of Palm Springs - Camelot Theatre,2300 E Baristo Rd,Palm Springs,CA,92262,760-323-8214,33.81996,-116.5212451,2013-12-31,,,,J1772
ELEC,Sheridan Nissan,114 S Dupont Hwy,New Castle,DE,19720,302-326-6100,39.6637925,-75.6052654,2014-04-21,,,,J1772
ELEC,The Reeds at Shelter Haven,9601 3rd Ave,Stone Harbor,NJ,8247,609-368-0100,39.054155,-74.761398,2014-08-05,,,,J1772
E85,Hull Co-op Association,1207 Highway 18,Hull,IA,51239,712-439-2406  712-439-1140,43.1857738,-96.13029859999999,2014-04-04,,,FALSE,
E85,Menlo Park Veterans Affairs Medical Center,795 Willow Rd,Menlo Park,CA,94025,,37.46688,-122.163,2014-08-05,,,FALSE,
ELEC,Autocenters Nissan,1825 E Edwardsville Rd,Wood River,IL,62095,618-251-3000,38.8586473,-90.0668932,2014-04-21,,,,J1772
LPG,INDOT - Beanblossom Maintenance Unit,6751 N State Rd 135,Freetown,IN,47235,,38.9730129,-86.1343988,2013-08-31,,,,
ELEC,Marshall Auto Body - Tesla,22300 W Bluemound Rd,Waukesha,WI,53186,262-549-4300,43.036619,-88.192406,2013-07-31,,,,J1772
CNG,City of Longmont CNG Station,1100 S Sherman St,Longmont,CO,80501,720-941-2791,40.1464137,-105.1145973,2013-12-31,,HD,,
LPG,Connelly RV Resort and Kamper's Lodge,3465 US Highway 301 N,Wilson,NC,27893,252-237-0905,35.746035,-77.873964,2014-07-02,,,,
ELEC,NOVA CONSULTNTS,"21580 Novi Rd., Suite 300",Novi,MI,48375,888-758-4389,42.4468435,-83.4724663,2014-08-11,,,,NEMA520 J1772
CNG,Ohio Department of Transportation - District 12,5500 Transportation Blvd,Garfield Heights,OH,44125,,41.414997,-81.614726,2014-03-06,,LD,,
E85,Anew,2431 84th Ave,Zeeland,MI,49464,800-748-0595,42.8137389,-85.989809,2014-05-02,,,FALSE,
ELEC,Nelson Nissan,800 W Queens St,Broken Arrow,OK,74012,918-258-6581,36.071228,-95.800458,2014-04-21,,,,J1772
ELEC,TUCSON RENTAL,9855 E Speedway Blvd,Tucson,AZ,85748,888-758-4389,32.2361565,-110.7817917,2014-08-11,,,,NEMA520 J1772
LPG,U-Haul,1768 N Glenstone Ave,Springfield,MO,65803,417-866-4893,37.2299669,-93.2612323,2014-06-03,,,,
ELEC,DP21,152-164 Green Ln,Bedford Hills,NY,10507,888-758-4389,41.2247373,-73.7142366,2014-08-11,,,,J1772
LPG,Suburban Propane,2230 Lansing Rd,Charlotte,MI,48813,517-543-1363,42.5922489,-84.7911848,2014-05-02,,,,
ELEC,Brown's Fairfax Nissan,11000 Main St,Fairfax,VA,22030,703-591-8009,38.8530341,-77.3244478,2014-04-21,,,,J1772
LPG,Froman Oil & Propane,17951 S Highway 66,Claremore,OK,74017,918-341-4434,36.353369,-95.5841669,2014-08-05,,,,
LPG,Ted Johnson Propane,5140 N Elton St,Baldwin Park,CA,91706,626-337-1222,34.106238,-117.9505061,2014-05-02,,,,
CNG,SunLine Transit Agency,32505 Harry Oliver Tr,Thousand Palms,CA,92276,760-343-3456,33.8153399,-116.3942833,2014-06-03,,HD,,
ELEC,NECA-IBEW Electrical Training Center,16021 NE Airport Way,Portland,OR,97230,888-998-2546,45.557884,-122.497748,2014-08-11,,,,J1772
CNG,Alternative Vehicle Service Group - Tewksbury,20 Main St,Tewksbury,MA,1876,617-242-8755,42.628424,-71.2734198,2014-05-02,,MD,,
E85,Speedway #5543,8185 Commerce Rd,Commerce,MI,48382,248-366-9663,42.5925017,-83.4455115,2014-03-06,,,FALSE,
E85,Signal Food,1690 W State Highway J,Ozark,MO,65721,417-581-9902,37.0701339,-93.2204668,2014-06-03,,,FALSE,
LPG,Thompson Gas,1225 W D St,North Wilkesboro,NC,28659,336-838-8332,36.1592725,-81.1536347,2014-07-02,,,,
ELEC,Firelite Lodge,7035 N Lake Blvd,Tahoe Vista,CA,96148,530-546-7222,39.2396769,-120.0477726,2013-06-25,,,,J1772
ELEC,InterCity Transit,526 Pattison SE,Olympia,WA,98506,360-786-8585,47.0442957,-122.8576441,2014-06-03,,,,NEMA520
ELEC,Walmart #2321 - Kailua-Kona HI,75-1015 Henry St,Kailua-Kona,HI,96740,888-998-2546,19.645467,-155.990287,2014-08-11,,,,J1772
E85,Pioneer Travel Plaza,3230 Pioneer Rd,Richfield,WI,53076,262-628-3344,43.282288,-88.196959,2013-10-31,,,FALSE,
ELEC,UW,1390 University Ave,Madison,WI,53706,888-758-4389,43.0741367,-89.4086354,2014-08-11,,,,J1772
E85,Casey's General Store,620 2nd Ave S,Saint James,MN,56081,507-375-3411,43.9812112,-94.6273873,2014-03-06,,,FALSE,
HY,City of Las Vegas,2950 Ronemus Dr,Las Vegas,NV,89128,702-229-6971,36.214646,-115.257149,2008-05-29,,,,
E85,Stripes Store #2221,6814 Weber,Corpus Christi,TX,78413,361-855-8865,27.693267,-97.415679,2013-11-30,,,FALSE,
ELEC,"""North 40"" Parking Lot",1647 L Ave,Plano,TX,75074,888-998-2546,33.021847,-96.697517,2014-08-11,,,,J1772
E85,Spinx #233,215 S Pine St,Spartanburg,SC,29302,864-573-6442,34.9501739,-81.917306,2014-06-03,,,FALSE,
CNG,City of Los Angeles - Port of Los Angeles - Administration,325 S Palos Verdes St,Los Angeles,CA,90731,,33.7411549,-118.2813671,2014-04-04,,LD,,
E85,Formula Marathon,310 W Northwest Hwy,Mount Prospect,IL,60056,847-577-5760,42.066074,-87.941894,2013-10-31,,,FALSE,
ELEC,Data Cave,2425 Technology Blvd,Columbus,IN,47201,,39.183267,-85.8947,2013-12-25,,,,J1772
BD,Pacific Biodiesel Inc - Burt's Service,1342 N School St,Honolulu,HI,96817,808-841-6711,21.3318109,-157.866066,2014-05-02,,,,
ELEC,Gay Brewer Jr Golf Course,469 Parkway Dr,Lexington,KY,40504,859-288-2900,38.0356043,-84.52542270000001,2014-03-06,,,,J1772
E85,Chevron,1601 Research Park Dr,Davis,CA,95618,530-750-0799,38.5403405,-121.7319544,2014-03-06,,,FALSE,
E85,Propel Fuels - 76,12042 E Firestone Blvd,Norwalk,CA,90650,562-863-7786,33.90934,-118.076168,2013-11-30,,,FALSE,
ELEC,AutoNation Nissan of Marietta,925 Cobb Pkwy SE,Marietta,GA,30060,770-422-4546,33.9298795,-84.5086792,2014-05-02,,,,J1772 CHADEMO
E85,Murray State University,615 Gilbert Graves Dr,Murray,KY,42071,,36.616933,-88.3193278,2014-07-02,,,FALSE,
LPG,Blossman Gas Inc,560 S 16th Ave,Laurel,MS,39440,601-428-5441,31.6848419,-89.1468252,2014-06-03,,,,
ELEC,DOMICILIO,431 El Camino Real,Santa Clara,CA,95050,888-758-4389,37.3472057,-121.9321269,2014-08-11,,,,NEMA520 J1772
E85,Brookville Maintenance Facility,8710 Brookville Rd,Silver Spring,MD,20910,,38.99815,-77.0573,2012-10-31,,,FALSE,
ELEC,JBG - Choke Cherry - Rockville MD,1 Choke Cherry Road,Rockville,MD,20850,888-998-2546,39.112689,-77.185113,2014-08-11,,,,J1772
E85,Break Time Convenience Store #3026,2101 W Ash St,Columbia,MO,65203,573-445-7425,38.957916,-92.372101,2014-07-03,,,FALSE,
ELEC,Roland D Kelly Nissan,420 Cabot St,Beverly,MA,1915,978-922-1405,42.560051,-70.884297,2014-04-21,,,,J1772
ELEC,OUC,5151 Raleigh St,Orlando,FL,32811,888-758-4389,28.5280247,-81.4475861,2014-08-11,,,,NEMA520 J1772
ELEC,Echo Aventura,3250 NE 188 Street,Aventura,FL,33180,800-663-5633,25.949131,-80.1354575,2014-08-11,,,,J1772
LPG,Potts Gas Co,12728 State Highway 19,Canton,TX,75103,903-567-6338,32.6059006,-95.8502923,2013-02-28,,,,
ELEC,CBRE - Britannia Point Grand,280 E Grand Ave,South San Francisco,CA,94080,888-998-2546,37.65216,-122.39512,2014-08-11,,,,CHADEMO J1772
E85,Holiday Stationstore #73,8401 Lyndale Ave S,Bloomington,MN,55420,952-881-6083,44.851101,-93.28784,2014-04-04,,,FALSE,
E85,Bonneville Power Administration,5411 NE Highway 99,Vancouver,WA,98663,,45.662257,-122.664489,2014-08-05,,,FALSE,
E85,Robert J Dole Medical Center,5500 E Kellogg,Wichita,KS,67218,,37.6813519,-97.274539,2014-08-05,,,FALSE,
E85,Kum & Go #302,2905 4th Ave S,Clear Lake,IA,50428,641-357-6041,43.1336852,-93.3508873,2014-03-06,,,FALSE,
LPG,Waltlou Propane Gas,455 Cambridge St,Fredericksburg,VA,22405,540-373-0850,38.343364,-77.4596989,2013-12-31,,,,
BD,Propel Fuels - Shell,3204 Richards Rd,Bellevue,WA,98005,425-746-8945,47.581392,-122.1676714,2014-06-03,,,,
ELEC,2800 San Jacinto,2800 San Jacinto,Houston,TX,77004,888-998-2546,29.742916,-95.373811,2014-08-11,,,,J1772
ELEC,Las Vegas Convention Center,3150 Paradise Rd,Las Vegas,NV,89109,702-892-0711,36.132778,-115.155278,2014-08-05,,,,J1772
ELEC,Fox Studio Operations,10201 Pico Blvd,Los Angeles,CA,90035,888-998-2546,34.049144,-118.412694,2014-08-11,,,,J1772
ELEC,City of Newport - Public Parking,925 SW Hurbert St,Newport,OR,97365,888-833-2148,44.632519,-124.055931,2014-05-02,,,,J1772 CHADEMO
E85,Road Ranger #181,500 Toronto Rd,Springfield,IL,62711,815-516-0863,39.7136311,-89.64731119999999,2014-03-06,,,FALSE,
ELEC,Colorado Mountain College - Leadville,901 S Highway 24,Leadville,CO,80461,719-486-2015,39.2401051,-106.3024776,2014-07-03,,,,J1772
ELEC,CPSE-SATX,4821 Broadway St,San Antonio,TX,78209,888-758-4389,29.470615,-98.464322,2014-08-11,,,,J1772
ELEC,Westin Kierland Resort and Spa,6902 E. Greenway,Scottsdale,AZ,85254,888-998-2546,33.625432,-111.932871,2014-08-11,,,,J1772
LPG,U-Haul,55 E 3900 S,Salt Lake City,UT,84107,801-266-3733,40.687699,-111.889744,2013-09-30,,,,
LPG,Fencl Oil & LP Co,2345 172nd Ave,Decorah,IA,52101,563-569-8205,43.277106,-91.740056,2014-04-04,,,,
LPG,Western Propane Service,12600 Western Ave,Garden Grove,CA,92841,714-893-9329,33.7790111,-118.0011955,2014-05-02,,,,
LPG,Servigas - Ikard & Newsom,8319 Highway 478,Vado,NM,88072,575-233-3752  888-829-6657,32.1157308,-106.6650808,2013-02-28,,,,
ELEC,Ruby Falls,1720 South Scenic Hwy,Chattanooga,TN,37409,888-998-2546,35.018887,-85.339767,2014-08-11,,,,J1772
ELEC,Hall Nissan,3417 Western Branch Blvd,Chesapeake,VA,23321,757-673-8000,36.8650124,-76.4181516,2014-05-02,,,,J1772
ELEC,Portland General Electric,7800 SW Mohawk St,Tualatin,OR,97062,503-892-7345,45.375865,-122.75821,2013-07-31,,,,NEMA515 J1772
ELEC,350GREEN,3320 Grove Ave,Berwyn,IL,60402,888-758-4389,41.831528,-87.794338,2014-08-11,,,,J1772
BD,Person County - North Carolina DOT,517 Leasburg Rd,Roxboro,NC,27574,,36.3917005,-78.9969895,2013-06-30,,,,
ELEC,NRG eVgo - Whole Foods,3000 Telegraph Ave,Berkeley,CA,94705,877-455-3833,37.855671,-122.260645,2014-07-03,,,,CHADEMO NEMA520 J1772
ELEC,CARCHARGING,350 E 30th St,New York,NY,10016,888-758-4389,40.741368,-73.975668,2014-08-11,,,,NEMA520 J1772
ELEC,UC Davis - Lot 49 Visitor Parking,La Rue Rd and Garrod Dr,Davis,CA,95616,530-752-8277,38.5344111,-121.7600026,2013-10-31,,,,J1772
ELEC,Virginia Commonwealth University (VCU) - N-Deck Parking Deck,615 N 10th St,Richmond,VA,23298,804-828-2421,37.543387,-77.42953,2012-12-31,,,,J1772
ELEC,"Walgreens - Stone Mountain, GA #7608",5435 Five Forks Trickum Rd SW,Stone Mountain,GA,30087,800-663-5633,33.8403264,-84.1311413,2014-08-11,,,,J1772
ELEC,Starbucks/Jimmy John's Parking Lot,102 22nd St,Galveston,TX,77550,888-998-2546,29.308233,-94.79273,2014-08-11,,,,J1772
E85,Super Pantry #10,1212 N Bowman,Danville,IL,61832,217-431-0439,40.1451568,-87.6118994,2013-10-31,,,FALSE,
ELEC,Springfield - Courts Parking,220 5th Street,Springfield,OR,97477,888-998-2546,44.047691,-123.020135,2014-08-11,,,,J1772
ELEC,EOFF Electric,2025 W 2nd Ave,Eugene,OR,97402,855-443-3873,44.057902,-123.124704,2012-04-30,,,,J1772
E85,Stripes Store #2406,11225 Quaker Ave,Lubbock,TX,79424,806-771-2404,33.4919545,-101.904968,2013-11-30,,,FALSE,
ELEC,"Carefirst, Owings Mills",10455 Mill Run Circle,Owings Mills,MD,21117,800-663-5633,39.4056805,-76.7960916,2014-08-11,,,,J1772
ELEC,FLORIDA   TECH,150 W University Blvd,Melbourne,FL,32901,888-758-4389,28.0624233,-80.6218815,2014-08-11,,,,NEMA520 J1772
E85,Propel Fuels - Shell,1515 S River Rd,West Sacramento,CA,95691,916-371-2570,38.569408,-121.521431,2014-07-02,,,FALSE,
ELEC,Westin Ka'anapali Resort & Spa,2365 Kaanapali Pkwy,Lahaina,HI,96761,503-740-4032  650-845-2869,20.919806,-156.694844,2014-05-02,,,,NEMA520 J1772
ELEC,Harry Green Chevrolet,Old Route 50 E,Clarksburg,WV,26301,304-624-6304,39.277617,-80.299608,2014-04-04,,,,J1772
E85,Holiday Stationstore #405,13028 Main St,Rogers,MN,55374,763-428-2670,45.192971,-93.5519541,2014-04-04,,,FALSE,
LPG,AmeriGas,6801 Mitchell Pkwy,Arlington,TX,76002,817-467-1727,32.630437,-97.082296,2013-02-28,,,,
ELEC,WELCOME TO PCC,1570 Colorado Blvd,Pasadena,CA,91106,888-758-4389,34.1439329,-118.119168,2014-08-11,,,,NEMA520 J1772
ELEC,City of Chandler Park Side,"11 West Buffalo, South East Corner of San Marcos Place & Buffalo Street",Chandler,AZ,85225,888-998-2546,33.304455,-111.841933,2014-08-11,,,,J1772
ELEC,TARGET CORP,125 Shoreline Blvd,San Rafael,CA,94901,888-758-4389,37.955212,-122.4912639,2014-08-11,,,,J1772
ELEC,Broccolo Tree and Lawncare Garden Center,2755 Penfield Rd,Fairport,NY,14450,585-424-4476,43.1268249,-77.386031,2014-08-05,,,,J1772
ELEC,Camelback Ford,1330 E. Camelback Road,Phoenix,AZ,85012,888-998-2546,33.51053,-112.047857,2014-08-11,,,,J1772
E85,Bucky's Express #84,3052 S 84th St,Omaha,NE,68124,402-255-0006,41.2292438,-96.0437024,2014-06-03,,,FALSE,
ELEC,COLGATE,Lally Ln,Hamilton,NY,13346,888-758-4389,42.817555,-75.5392648,2014-08-11,,,,J1772
LPG,West Texas Gas,429 N Highway 87,Tulia,TX,79088,806-995-1485,34.5417734,-101.7764443,2013-02-28,,,,
ELEC,Park Place Regional Library,8145 Park Place Blvd,Houston,TX,77017,888-998-2546,29.688141,-95.276637,2014-08-11,,,,J1772
LPG,INDOT - Grantsburg Maintenance Unit,2696 Old State Rd 37,English,IN,47118,,38.291897,-86.4686606,2013-08-31,,,,
E85,Barksdale Air Force Base,1049 Davis Ave E,Barksdale AFB,LA,71110,,32.4991119,-93.6747308,2014-08-05,,,FALSE,
ELEC,Riverton Mitsubishi,80 W Motor Park Ave,Sandy,UT,84070,801-208-2700,40.554688,-111.894265,2013-09-25,,,,J1772
ELEC,FNG FOX LOT,10201 West Pico Blvd.,Los Angeles,CA,90067,888-758-4389,34.050756,-118.4123267,2014-08-11,,,,J1772
CNG,Trillium CNG - United Parcel Service - West Sacramento,1320 Shore St,West Sacramento,CA,95691,,38.5732516,-121.5462381,2014-05-02,,MD,,
ELEC,East Hartford Public School - Department of Facilities,734 Tolland St,East Hartford,CT,6108,860-622-5952,41.78392,-72.6047,2014-04-21,,,,J1772
ELEC,City of Bowling Green - Parking Lot 2,125 S Prospect St,Bowling Green,OH,43402,419-354-6246,41.3739884,-83.648724,2013-06-25,,,,J1772
ELEC,Houston Central Library,500 McKinney,Houston,TX,77002,888-998-2546,29.759035,-95.37,2014-08-11,,,,J1772
ELEC,WINDFREE ENERGY,6121 Washington St,Gurnee,IL,60031,888-758-4389,42.362999,-87.9541779,2014-08-11,,,,NEMA520 J1772
HY,Burbank,151 W Verdugo Ave,Burbank,CA,91502,,34.174435,-118.310501,2012-01-03,,,,
ELEC,WALNUT CREEK,1390 N Broadway,Walnut Creek,CA,94596,888-758-4389,37.8991165,-122.0591736,2014-08-11,,,,NEMA520 J1772
CNG,SoCalGas - Riverside Base,3077 Cottage St,Riverside,CA,92507,213-244-5681,33.9715116,-117.371788,2014-05-02,,MD,,
CNG,BeeGreen CNG Filling Station,3099 Duss Ave,Ambridge,PA,15003,724-595-7107,40.6192915,-80.2263933,2014-08-05,,HD,,
ELEC,Orr Nissan of Corinth,5650 S Stemmons Fwy,Corinth,TX,76210,817-267-6411,33.157906,-97.06534,2014-04-21,,,,J1772
E85,Jet-Pep Store #29,18055 Highway 31 N,Cullman,AL,35058,256-734-7385,34.22775,-86.8606928,2013-09-30,,,FALSE,
E85,Sunoco - McBirney's Auto Service,720 N Broadway,Massapequa,NY,11758,516-798-9056,40.692812,-73.464669,2014-04-04,,,FALSE,
ELEC,JBG - Security Lane - Rockville MD,5515 Security Lane,Rockville,MD,20852,888-998-2546,39.041786,-77.111975,2014-08-11,,,,J1772
ELEC,Coda of Silicon Valley,4175 Stevens Creek Blvd,Santa Clara,CA,95051,408-553-9800,37.32399,-121.974,2012-06-25,,,,J1772
ELEC,Omak Inn,912 Koala Dr,Omak,WA,98841,800-204-4800,48.4212278,-119.5052719,2014-02-05,,,,J1772
ELEC,Element Hotels - Ewing,1000 Sam Weinroth Rd,Ewing,NJ,8628,609-671-0050,40.27801132,-74.82046509,2013-11-30,,,,NEMA520
ELEC,Koko Marina Shopping Center,7192 Kalanianaole Hwy,Honolulu,HI,96825,808-395-4737,21.278614,-157.705334,2014-05-02,,,,J1772
LPG,Hopkins Propane,1904 E US 9,Stigler,OK,74462,918-967-3311,35.251,-95.1146,2014-08-05,,,,
BD,Central Washington Biodiesel,1000 N Prospect St,Ellensburg,WA,98926,509-899-3370,47.0015486,-120.5654347,2014-05-02,,,,
ELEC,Howell Mill LLC (Riverfront Parkway),1301 Riverfront Parkway,Chattanooga,TN,37402,888-998-2546,35.041802,-85.320298,2014-08-11,,,,J1772
ELEC,Town Center Nissan,2310 Barrett Lakes Blvd N,Kennesaw,GA,30144,770-423-9691,34.009954,-84.57675,2014-05-02,,,,J1772
LPG,Spalding Gas,415 W Solomon St,Griffin,GA,30223,770-228-8484,33.2488962,-84.2693589,2013-02-28,,,,
ELEC,CARCHARGING,600 Grant St,Pittsburgh,PA,15219,888-758-4389,40.441505,-79.9951949,2014-08-11,,,,J1772
ELEC,Google - Kirkland Building C,747 6th St S,Kirkland,WA,98033,,47.67043686,-122.1971359,2013-11-30,,,,J1772
ELEC,FRED MEYER - #460 Salmon Creek,800 NE Tenney Rd,Vancouver,WA,98685,888-998-2546,45.720603,-122.663135,2014-08-11,,,,CHADEMO J1772
ELEC,Delaware Welcome Center and Travel Plaza - Tesla,530 John F Kennedy Memorial Hwy,Newark,DE,19702,877-798-3752,39.6621876,-75.6911386,2014-04-21,,,,TESLA
ELEC,NATIONAL GRID,3155 Niagara Falls Blvd,Amherst,NY,14228,888-758-4389,43.0394249,-78.8209183,2014-08-11,,,,J1772
ELEC,Richfield Bloomington Honda,400 W 78th St,Richfield,MN,55423,612-866-8832,44.8628848,-93.2852207,2014-04-21,,,,J1772
ELEC,Briggs Nissan of Lawrence,2300 W 29th Terrace,Lawrence,KS,66047,785-856-8889,38.9302918,-95.2621851,2014-04-21,,,,J1772
ELEC,Middle Tennessee Electric Membership Corp - District Office,326 Saint Andrews Dr,Murfreesboro,TN,37128,,35.843255,-86.446727,2014-08-05,,,,J1772
CNG,Fast Lane Travel Plaza,1501 N Airport Rd,Weatherford,OK,73096,580-772-6076,35.5414735,-98.65867879999999,2014-08-05,,HD,,
CNG,Clean Energy - Regional Transportation Commission of Southern Nevada,300 W Bonanza Rd,Las Vegas,NV,89106,702-676-1500,36.180229,-115.143369,2013-07-31,,MD,,
ELEC,South Side Parking Garage (SSPG),Bizzell St/Lewis St,College Station,TX,77840,888-998-2546,30.61322,-96.33386,2014-08-11,,,,J1772
E85,Maxwell Air Force Base,30 N Selfridge St,Montgomery,AL,36112,,32.373972,-86.3516683,2014-08-05,,,FALSE,
LPG,Menards,13441 S Route 59,Plainfield,IL,60585,815-577-3386,41.6378884,-88.202918,2013-06-30,,,,
ELEC,350GREEN,10840 Katella Ave,Anaheim,CA,92804,888-758-4389,33.8029366,-117.943634,2014-08-11,,,,J1772
LPG,Blackhawk Propane,1000 Doner Dr,South Beloit,IL,61080,815-389-3522,42.4859078,-89.0453861,2013-02-28,,,,
LPG,Blossman Gas Inc,7794 Highway 45 N,Meridian,MS,39305,601-679-7077,32.4493269,-88.627151,2014-06-03,,,,
E85,Georgia Power,960 Key St,Macon,GA,31204,,32.8175124,-83.6752994,2013-09-30,,,FALSE,
E85,Meijer Gas #196,8994 Shaver Rd,Portage,MI,49024,269-321-4329,42.1860746,-85.6031825,2014-05-02,,,FALSE,
LPG,Bi-State Propane,5871 Reno Hwy,Fallon,NV,89406,775-463-2363,39.48681,-118.874,2013-02-28,,,,
LPG,U-Haul,5456 Main St,Lancaster,PA,17520,717-569-4538,40.0924123,-76.3491773,2014-08-05,,,,
E85,Speedway #2325,635 Tecumseh St,Dundee,MI,48131,734-529-5200,41.958804,-83.6705302,2014-03-06,,,FALSE,
ELEC,Ontario International Airport,Terminal Way,Ontario,CA,91761,909-937-1240,34.0616,-117.5935,2013-09-25,,,,J1772
ELEC,350GREEN,2200 Hilltop Mall Rd,Richmond,CA,94806,888-758-4389,37.980725,-122.328355,2014-08-11,,,,J1772
ELEC,University of California Santa Cruz - West Parking,1156 High St,Santa Cruz,CA,95064,831-502-7341,36.9776244,-122.0543182,2013-12-31,,,,NEMA520 J1772
ELEC,Sultan Visitor Information Center,320 Main St,Sultan,WA,98294,888-833-2148,47.862157,-121.816597,2013-05-31,,,,J1772 CHADEMO
LPG,Moeder Oil,1002 N Main St,Pratt,KS,67124,620-672-3811,37.65543,-98.7391,2012-05-31,,,,
ELEC,Colorado Mountain College - Rifle,3695 Airport Rd,Rifle,CO,81650,970-625-0649,39.5202102,-107.7345675,2014-07-03,,,,J1772
ELEC,EV CHARGER,3475 Las Vegas Strip,Las Vegas,NV,89109,888-758-4389,36.1193098,-115.1717703,2014-08-11,,,,J1772
E85,Murphy USA #6843,3420 Singing Hills Blvd,Sioux City,IA,51106,712-258-2112,42.4361795,-96.3638007,2014-08-05,,,FALSE,
ELEC,Riverhead Auto Mall,1800 Old Country Rd,Riverhead,NY,11901,631-369-0600,40.924952,-72.7056999,2014-04-21,,,,J1772
ELEC,CCC,2870 Gateway Oaks Dr,Sacramento,CA,95833,888-758-4389,38.6219702,-121.5211045,2014-08-11,,,,NEMA520 J1772
LPG,U-Haul,11298 S Priest Dr,Tempe,AZ,85283,480-940-0274,33.341647,-111.963419,2013-09-30,,,,
E85,Sacramento State Garage,1416 10th St,Sacramento,CA,95814,,38.5752714,-121.4959965,2014-05-02,,,FALSE,
ELEC,CITY OF SOLVANG,1556 Mission Dr,Solvang,CA,93463,888-758-4389,34.5957527,-120.1434555,2014-08-11,,,,J1772
ELEC,Puyallup Nissan,101 Valley Ave NW,Puyallup,WA,98371,253-848-4507,47.2071047,-122.2958044,2014-04-21,,,,J1772
LPG,Taylor Butane Co,3302 W 2nd St,Taylor,TX,76574,512-352-5248,30.5634815,-97.4488915,2013-02-28,,,,
CNG,Clean Energy - PS Energy - Lithonia,2490 Lithonia Industrial Blvd,Lithonia,GA,30058,866-809-4869,33.712794,-84.125795,2014-04-04,,MD,,
LPG,Suburban Propane,110 Highway 99 N,Eugene,OR,97402,541-344-2283,44.0620974,-123.1354617,2014-03-06,,,,
ELEC,"Walgreens - San Diego, CA #6094",3005 Midway Dr,San Diego,CA,92110,800-663-5633,32.749527,-117.206945,2014-08-11,,,,J1772
ELEC,Kelly Nissan of Lynnfield,275 Broadway,Lynnfield,MA,1940,781-598-1234,42.5101363,-71.0092109,2014-04-21,,,,J1772
LPG,Frio Canyon Propane,633 US 83,Leakey,TX,78873,830-232-5282,29.71948,-99.7636,2013-02-28,,,,
E85,Fastrac Markets,260 S 2nd St,Fulton,NY,13069,315-598-8648,43.319072,-76.413028,2014-04-04,,,FALSE,
ELEC,"IdleAir at Carneys Point, NJ - Flying J #688 - I-295 Exit 2C",326 Slapes Corner,Carney Point,NJ,8069,888-998-2546,39.683467,-75.484314,2014-08-11,,,,CHADEMO
CNG,City of New York - Flushing Meadows Corona Park,11101 Corona Ave,Flushing,NY,11368,,40.740789,-73.849372,2014-04-04,,LD,,
ELEC,Commons Municipal Parking Garage,60 Beattie Pl,Greenville,SC,29601,843-743-6736,34.8530379,-82.3953179,2012-07-31,,,,J1772
ELEC,The Muller Company - Los Angeles - 5110,5110 W. Goldleaf Circle,Los Angeles,CA,90056,888-998-2546,33.98863,-118.367455,2014-08-11,,,,J1772
LPG,MFA Oil & Propane Co,20208 N Keota Landing Rd,Keota,OK,74941,918-966-3340,35.2557,-94.9219,2014-08-05,,,,
BD,Citgo Easy Stop Food - Mid-State Energy,4235 Clark Rd,Sarasota,FL,34233,941-922-5696,27.2693278,-82.4835626,2014-08-05,,,,
E85,Kum & Go #405,2710 Moberly Ln,Bentonville,AR,72712,479-464-0849,36.34451170000001,-94.1838145,2014-03-06,,,FALSE,
ELEC,TOWSON,Cross Campus Dr,Towson,MD,21252,888-758-4389,39.390911,-76.6076425,2014-08-11,,,,NEMA520 J1772
E85,Nebraska Transportation Services Bureau - Dispatch Building,M St and Centennial Mall S,Lincoln,NE,68508,,40.811394,-96.699689,2014-06-03,,,FALSE,
ELEC,The Muller Company - Los Angeles - 5130,5130 W. Goldleaf Circle,Los Angeles,CA,90056,888-998-2546,33.988971,-118.363664,2014-08-11,,,,J1772
E85,Gallahan Irish Market,903 W Main St,Peru,IN,46970,765-473-4657,40.7447376,-86.09350049999999,2014-07-02,,,FALSE,
ELEC,IRVINE CO OFC,545 San Nicolas Dr,Newport Beach,CA,92660,888-758-4389,33.6152866,-117.8714915,2014-08-11,,,,J1772
ELEC,Town of  Dyer - Town Hall - Public,1 Town Sq,Dyer,IN,46311,219-865-6108,41.492057,-87.522819,2013-06-30,,,,NEMA520 J1772
ELEC,"Walgreens - Aurora, CO #6513",15301 E Iliff Ave,Aurora,CO,80013,800-663-5633,39.675265,-104.8091759,2014-08-11,,,,J1772
CNG,Republic Services,832 Langsdale Ave,Indianapolis,IN,46202,,39.796297,-86.173618,2013-11-30,,HD,,
ELEC,CARCHARGING,50 W San Fernando St,San Jose,CA,95113,888-758-4389,37.3339019,-121.8892744,2014-08-11,,,,J1772
BD,City of Phoenix - 91st Avenue WWTP,5615 S 91st Ave,Tolleson,AZ,85353,,33.3950895,-112.2541881,2013-10-31,,,,
ELEC,Salem Riverfront Park,200 Water St NE,Salem,OR,97301,888-998-2546,44.9424308,-123.0432305,2014-08-11,,,,J1772
E85,McClure Oil #50,2304 E Edison Rd,South Bend,IN,46615,765-674-9771,41.6944988,-86.2155743,2014-07-03,,,FALSE,
LPG,Fair Propane,863 Highway 12,Kosciusko,MS,39090,662-289-6163,33.0683368,-89.5625151,2014-06-03,,,,
ELEC,Missoula Nissan,2715 Brooks St,Missoula,MT,59801,406-549-5178,46.84559,-114.023313,2014-05-02,,,,J1772
ELEC,Downey Nissan,7550 Firestone Blvd,Downey,CA,90241,562-334-1090,33.946204,-118.145718,2014-04-21,,,,J1772
LPG,U-Haul,1641 Civic Center Dr NW,Rochester,MN,55901,507-288-0633,44.030825,-92.48438999999999,2014-03-06,,,,
ELEC,TARGET CORP,4601 2nd St,Davis,CA,95618,888-758-4389,38.5539587,-121.6997015,2014-08-11,,,,J1772
E85,Family Express - Roselawn,11880 W State Route 10,Roselawn,IN,46310,219-345-4100,41.144817,-87.273803,2014-07-02,,,FALSE,
ELEC,Jackie Cooper Nissan,9898 S Memorial Dr,Tulsa,OK,74133,918-249-9393,36.021441,-95.8876779,2014-04-21,,,,J1772
ELEC,Alexander Nissan - Cool Springs,212 Comtide Ct,Franklin,TN,37067,615-790-2500,35.9569403,-86.8090886,2014-05-02,,,,J1772
ELEC,Lewisville Autoplex,1515 S Stemmons Fwy,Lewisville,TX,75067,888-998-2546,33.024162,-96.989113,2014-08-11,,,,J1772
ELEC,Apple Nissan,1510 Whiteford Rd,York,PA,17402,717-755-9504,39.981561,-76.699133,2014-04-21,,,,J1772
E85,United Co-op,306 E Main St,Reedsburg,WI,53959,608-524-6115,43.5324872,-90.0063124,2014-06-03,,,TRUE,
LNG,Clean Energy - Chicago Stevenson Expressway,4220 W 36th St,Chicago,IL,60632,866-809-4869,41.8273129,-87.7289759,2014-04-04,,HD,,
E85,Holiday Stationstore #304,5000 N Cliff Rd,Sioux Falls,SD,57104,605-335-8456,43.6022101,-96.7112911,2013-11-30,,,FALSE,
LPG,Mid-Georgia Propane,4262 Interstate Dr,Macon,GA,31210,478-474-3414,32.8308557,-83.7289589,2013-03-31,,,,
ELEC,CITY OF GR PARK,50 Ottawa Ave NW,Grand Rapids,MI,49503,888-758-4389,42.9638062,-85.6715012,2014-08-11,,,,NEMA520 J1772
E85,Speedway #1018,5259 W 10th St,Indianapolis,IN,46224,317-243-2023,39.779629,-86.249815,2014-08-05,,,FALSE,
LPG,West Texas Gas,901 N 2nd St,Floydada,TX,79235,806-983-3366,33.9920451,-101.341182,2013-02-28,,,,
ELEC,GLENBOROUGH,550 E Hospitality Ln,San Bernardino,CA,92408,888-758-4389,34.06694,-117.273619,2014-08-11,,,,J1772
E85,Rebel Oil Co #91,3540 E Lake Mead Dr,Las Vegas,NV,89030,702-399-8244,36.19616,-115.099468,2013-09-30,,,FALSE,
E85,Meijer Gas #316,2217 W Columbia Ave,Battle Creek,MI,49015,269-968-3371,42.2973229,-85.2392364,2014-05-02,,,FALSE,
ELEC,Gladstone Nissan,19505 SE McLoughlin Blvd,Gladstone,OR,97027,503-655-6519,45.3799237,-122.6042468,2014-04-21,,,,J1772
E85,Rana Oil Co,2401 Sunrise Blvd,Rancho Cordova,CA,95670,916-635-3372,38.6149608,-121.2687875,2013-08-31,,,FALSE,
E85,Popke's Car Care,800 1st Ave W,Rock Rapids,IA,51246,712-472-3969,43.4318612,-96.1755228,2014-04-04,,,TRUE,
ELEC,Causeway Nissan,435 Route 72 W,Manahawkin,NJ,8050,609-978-6700,39.700208,-74.272339,2014-04-21,,,,J1772
BD,Idaho National Laboratory,2525 N Fremont Ave,Idaho Falls,ID,83415,,43.5176608,-112.0491841,2014-08-05,,,,
ELEC,Rafting in the Smokies Hartford,3595 Hartford Rd,Hartford,TN,37753,888-998-2546,35.816939,-83.145014,2014-08-11,,,,J1772
ELEC,CONSUMERSENERGY,530 Willow St,Lansing,MI,48906,888-758-4389,42.748809,-84.5592549,2014-08-11,,,,NEMA520 J1772
ELEC,City of Bellevue - Bellevue Service Center,2901 115th Ave NE,Bellevue,WA,98004,,47.63811493,-122.1882,2014-06-03,,,,J1772
E85,South Central Grain & Energy,100 Highway Ave,Hector,MN,55342,320-848-2286,44.738653,-94.714522,2014-04-04,,,TRUE,
ELEC,SIERRA COLLEGE,250 Sierra College Drive,Grass Valley,CA,95945,888-758-4389,39.2357503,-121.0466171,2014-08-11,,,,J1772
ELEC,KAUFMAN FIN GRP,18302 Highwoods Preserve Pkwy,Tampa,FL,33647,888-758-4389,28.136164,-82.374613,2014-08-11,,,,J1772
HY,Richmond Field Station - UC Berkeley,1301 S. 46th St. ,Richmond,CA,94804,,37.915696,-122.334695,2014-02-12,,,,
ELEC,"Walgreens - Oregon City, OR #3801",1310 Molalla Ave,Oregon City,OR,97405,800-663-5633,45.336162,-122.591209,2014-08-11,,,,J1772
ELEC,Bob Moore Nissan of Tulsa,8190 E Skelly Dr,Tulsa,OK,74129,918-628-0280,36.12136,-95.8839,2014-05-02,,,,J1772
ELEC,Northwoods Nissan,2039 N Susquehanna Trail,Hummels Wharf,PA,17831,570-884-1135,40.836286,-76.834656,2014-04-04,,,,J1772
ELEC,King County - King County Van Distribution Center,18655 NE Union Hill Rd,Redmond,WA,98052,,47.67584,-122.091467,2013-06-25,,,,J1772
ELEC,Kwik Trip #316,10 Denver Ave SE,Hutchinson,MN,55350,320-587-6010,44.871014,-94.37622,2014-05-02,,,,NEMA520
ELEC,RARITANVALLEYCC,Southwing Dr,Somerville,NJ,8876,888-758-4389,40.6100006,-74.6898727,2014-08-11,,,,NEMA520 J1772
E85,Weld County Government,1113 H St,Greeley,CO,80634,,40.446968,-104.70404,2013-12-31,,,FALSE,
ELEC,Cisco BXB 500,500 Beaver Brook,Boxborough,MA,1719,800-663-5633,42.4995987,-71.5386987,2014-08-11,,,,J1772
ELEC,"Walgreens - Chula Vista, CA #2623",1111 Third Ave,Chula Vista,CA,91911,800-663-5633,32.613528,-117.068816,2014-08-11,,,,J1772
CNG,Western Petroleum,1521 S 1500 E,Naples,UT,84078,435-789-1832,40.4337484,-109.4993989,2013-09-30,,HD,,
E85,Propel Fuels - Shell,40452 Murrieta Hot Springs Rd,Murrieta,CA,92653,800-871-0773,33.5557069,-117.1780426,2013-11-30,,,FALSE,
ELEC,St Pete Beach City Hall,155 Cory Ave,St. Pete Beach,FL,33706,727-367-2735,27.744,-82.7475,2014-08-05,,,,J1772
E85,Kroger Fuel Center #435,6388 Branch Hill-Guinea Pike,Loveland,OH,45140,513-697-4828,39.2290409,-84.2559885,2014-03-06,,,FALSE,
ELEC,InfoStructure Inc,314 N 22nd Ave,Humboldt,TN,38343,888-998-2546,35.8222071,-88.9075534,2014-08-05,,,,J1772
LPG,Active Enterprises Inc,1318 N Pacific Ave,Long Beach,WA,98631,360-642-2102,46.360704,-124.053964,2014-06-03,,,,
ELEC,Cafe Yumm! - On Broadway,730 E Broadway,Eugene,OR,97401,541-344-9866,44.049726,-123.0814342,2014-05-02,,,,NEMA520 J1772
CNG,Hearst Castle,750 Hearst Castle Rd,San Simeon,CA,93452,,35.6509982,-121.185683,2014-05-02,,HD,,
ELEC,MAUI OCEAN CLUB,100 Nohea Kai Dr,Lahaina,HI,96761,888-758-4389,20.9158039,-156.6950836,2014-08-11,,,,J1772
ELEC,Westar Energy - Shawnee Service Center,23505 W 86th St,Shawnee,KS,66227,800-383-1183,38.971248,-94.859986,2013-09-25,,,,J1772
CNG,CNG 4 America - Katy,24985 Katy Fwy,Katy,TX,77494,888-560-5556  281-395-0515,29.7845178,-95.8011412,2014-05-02,,HD,,
ELEC,CARCHARGING,418 Quincy Ave,Quincy,MA,2169,888-758-4389,42.2392068,-70.983317,2014-08-11,,,,NEMA520 J1772
ELEC,Southern Connecticut University,34 Wintergreen Ave,New Haven,CT,6515,203-392-7278,41.3333254,-72.9502064,2013-09-25,,,,J1772
E85,Marathon - Washtenaw Oil,3555 Washtenaw Ave,Ann Arbor,MI,48104,734-677-6840,42.255733,-83.688447,2014-05-02,,,FALSE,
ELEC,PALO ALTO CA,Bryant St,Palo Alto,CA,94301,888-758-4389,37.4465103,-122.1621399,2014-08-11,,,,NEMA520 J1772
ELEC,ShopRite Plaza,2333 Nott St E,Niskayuna,NY,12309,518-243-4565,42.8165908,-73.8898536,2014-05-02,,,,J1772
LPG,U-Haul,387 Swannanoa River Rd,Asheville,NC,28805,828-298-8551,35.579327,-82.51824,2014-07-03,,,,
E85,Norman's Auto Service,77-40 Hewlett St,New Hyde Park,NY,11040,718-347-3400,40.752747,-73.70251,2014-04-04,,,FALSE,
ELEC,CITYOFSANTAROSA,100 Santa Rosa Ave,Santa Rosa,CA,95404,888-758-4389,38.4378005,-122.711834,2014-08-11,,,,NEMA520 J1772
ELEC,Deacon Jones Nissan,1220 W Grantham St,Goldsboro,NC,27530,919-734-2411,35.399575,-78.015115,2014-05-02,,,,J1772
LPG,Miller Gas Co,1420 W Main St,Tremonton,UT,84337,435-257-5107,41.7111648,-112.1902278,2013-02-28,,,,
CNG,SunLine Transit Agency,83255 Highway 111,Indio,CA,92201,760-343-3456,33.714358,-116.211564,2014-06-03,,HD,,
BD,Lee County - North Carolina DOT,1502 S 7th St,Sanford,NC,27330,,35.4724666,-79.1583179,2013-06-30,,,,
ELEC,McGrath Nissan,945 E Chicago St,Elgin,IL,60120,847-888-2030,42.0337742,-88.2552647,2014-04-21,,,,J1772
LPG,Mr C's Ace Hardware,1201 Precinct Line Rd,Hurst,TX,76053,817-282-3428,32.8322186,-97.1865121,2013-02-28,,,,
ELEC,Walmart #3883 - Kapolei HI,91-600 Farrington Highway,Kapolei,HI,96707,888-998-2546,21.340984,-158.075564,2014-08-11,,,,J1772
ELEC,TAITEM,110 S Albany St,Ithaca,NY,14850,888-758-4389,42.438969,-76.502064,2014-08-11,,,,J1772
ELEC,Utah Division of Air Quality - Private Access,195 N 1950 W,Salt Lake City,UT,84114,,40.7733661,-111.9472798,2012-05-31,,,,J1772
ELEC,CARCHARGING,707 Wilshire Blvd,Los Angeles,CA,90017,888-758-4389,34.049261,-118.257024,2014-08-11,,,,NEMA520 J1772
CNG,Orem City,955 N 900 W,Orem,UT,84057,,40.3147779,-111.717746,2013-09-30,,MD,,
E85,Cenex - Olivia,1208 W Lincoln Ave,Olivia,MN,56277,320-523-1241,44.7764962,-94.9942488,2014-03-06,,,TRUE,
E85,Pettysville Junction,9190 Pettysville Rd,Pinckney,MI,48169,734-878-3050,42.4674947,-83.875715,2014-05-02,,,FALSE,
LPG,Citgo,1100 S Spring St,Port Washington,WI,53074,262-284-4122,43.375607,-87.893192,2014-06-03,,,,
LPG,U-Haul,5315 Summer Ave,Memphis,TN,38122,901-767-1663,35.156615,-89.883212,2014-08-05,,,,
E85,Sac-n-Pac Shell,901 Highway 95,Bastrop,TX,78602,512-308-1983,30.109968,-97.306666,2013-07-31,,,FALSE,
ELEC,Downtown Properties,"818 West Seventh Street, Suite 410",Los Angeles,CA,90017,888-998-2546,34.04889,-118.259518,2014-08-11,,,,J1772
LPG,AmeriGas,107 Iris Ave,Jefferson,LA,70121,504-835-0765,29.9576411,-90.1405534,2014-04-04,,,,
LPG,Frito Lay - Plymouth,45325 Polaris Ct,Plymouth,MI,48170,,42.38921999999999,-83.49038399999999,2014-04-04,,,,
LPG,Mother Lode Propane,2892 S Highway 49,Angels Camp,CA,95222,209-736-0070  800-404-1075,38.039032,-120.5164023,2014-05-02,,,,
E85,Kwik Trip #681,4400 O'Day Ave NE,St. Michael,MN,55376,763-497-2447,45.217558,-93.598394,2014-05-02,,,FALSE,
ELEC,ROMEL 400 SECR,4 W 4th Ave,San Mateo,CA,94402,888-758-4389,37.5622218,-122.3253799,2014-08-11,,,,J1772
E85,Cenex - Garner Townmart,260 Highway 18 W,Garner,IA,50438,641-923-2694,43.105733,-93.599169,2014-04-04,,,FALSE,
ELEC,Nissan of Newport News,12925 Jefferson Ave,Newport News,VA,23608,757-369-6600,37.151672,-76.531313,2014-05-02,,,,J1772
ELEC,City of Pleasanton - City Hall,200 Old Bernal,Pleasanton,CA,94566,888-758-4389  925-931-5440,37.65831375,-121.878891,2013-12-31,,,,J1772
LNG,Blu LNG - Blu Fuel Stop,1617 Finley Blvd,Birmingham,AL,35204,801-977-7252,33.5393029,-86.82779300000001,2014-07-03,,HD,,
ELEC,Capital One - Garage Ground Level,15075 Capital One Dr,Richmond,VA,23238,,37.62755585,-77.67361,2013-11-30,,,,J1772
LPG,Western States Propane,1207 Water St,Elko,NV,89801,775-753-5950,40.8355588,-115.7516817,2013-02-28,,,,
LPG,Bassemiers Fireplace Patio and Spas,4220 E Morgan Ave,Evansville,IN,47715,812-479-6338,37.9915571,-87.498868,2014-07-02,,,,
E85,Novi Shell,42355 W 13 Mile Rd,Novi,MI,48377,248-859-4292,42.509848,-83.466229,2014-05-02,,,FALSE,
LPG,M & W Butane,5849 Highway 145,Shannon,MS,38868,662-767-9377,34.125961,-88.7194,2014-06-03,,,,
LPG,Ferrellgas,336 Ranch Rd,Mount Washington,KY,40047,502-955-8646,38.0682386,-85.5509598,2014-07-03,,,,
ELEC,NATIONAL GRID,1043 State Route 9,Queensbury,NY,12804,888-758-4389,43.343524,-73.686323,2014-08-11,,,,J1772
CNG,Natural Fuels LLC,591 E Monticello Pike,Huntsville,TN,37756,423-663-9300,36.411596,-84.524446,2014-08-05,,HD,,
ELEC,Porter Nissan,300 E Cleveland Ave,Newark,DE,19711,302-368-6300,39.689047,-75.740166,2014-04-21,,,,J1772
ELEC,PARK SFO,195 N Access Rd San Francisco International Airport,South San Francisco,CA,94080,888-758-4389,37.6315158,-122.3902515,2014-08-11,,,,J1772
LPG,Blossman Gas Inc,2086 Highway 49 S,Florence,MS,39073,601-939-7930,32.1838399,-90.135176,2014-06-03,,,,
LPG,Heritage Propane,359 Pleasant Valley Rd,Murphy,NC,28906,828-837-8787  866-259-3171,35.1083513,-84.0189356,2014-07-03,,,,
ELEC,Lionshead Parking Structure,395 S Frontage Rd W,Vail,CO,81657,970-479-2180,39.6442866,-106.3868776,2013-09-30,,,,J1772
LPG,Scott Petroleum,22360 Highway 8 E,Grenada,MS,38901,662-226-2091,33.7795316,-89.7792826,2014-06-03,,,,
ELEC,Barberino Nissan,505 N Colony St,Wallingford,CT,6492,203-265-1611,41.467401,-72.817451,2014-04-21,,,,J1772
ELEC,Houston TranStar,6922 Katy Road,Houston,TX,77024,888-998-2546,29.782602,-95.44062,2014-08-11,,,,J1772
LPG,U-Haul,5010 Buffalo Rd,Erie,PA,16510,814-899-3167,42.1528735,-79.989309,2014-08-05,,,,
ELEC,WOLF TRAP,1645 Trap Rd,Vienna,VA,22182,888-758-4389,38.9334297,-77.2649689,2014-08-11,,,,NEMA520 J1772
CNG,Norwich Public Utilities,157 N Main St,Norwich,CT,6360,860-823-4119  860-823-4159,41.5275646,-72.0640586,2014-04-21,,HD,,
ELEC,Crosslake Campground,35507 County Rd 66,Crosslake,MN,56442,651-290-5793,46.6715019,-94.110957,2014-03-06,,,,NEMA1450
ELEC,World Car Nissan,12908 IH-35 N,San Antonio,TX,78233,210-599-5959,29.556508,-98.34469,2014-04-21,,,,J1772
CNG,Anadarko Carthage CNG Facility,1617 Highway 79 S,Carthage,TX,75633,,32.1635076,-94.3094791,2013-11-30,,LD,,
ELEC,BEVERLY HILLS,9510 Brighton Way,Beverly Hills,CA,90210,888-758-4389,34.0688965,-118.4032241,2014-08-11,,,,NEMA520 J1772
ELEC,El Dorado Transit Park & Ride,4640 Post St,El Dorado Hills,CA,95762,530-642-5383,38.6476,-121.067,2013-12-31,,,,J1772
LPG,U-Haul,173 Bath Rd,Brunswick,ME,4011,207-729-8779,43.9074122,-69.9187934,2014-04-04,,,,
E85,Harvest Land Co-op Cenex,410 Front St,Morgan,MN,56266,507-249-3196,44.4144785,-94.9274873,2014-04-04,,,TRUE,
ELEC,TOWN OF WINDSOR,9291 Old Redwood Hwy,Windsor,CA,95492,888-758-4389,38.5494201,-122.8140062,2014-08-11,,,,NEMA520 J1772
ELEC,Samitaur Constructs,3585 Hayden Avenue,Culver City,CA,90232,888-998-2546,34.024221,-118.382334,2014-08-11,,,,J1772
ELEC,KOHL'S,19307 Golden Valley Rd,Santa Clarita,CA,91321,888-758-4389,34.39217,-118.4688187,2014-08-11,,,,NEMA520 J1772
CNG,Great River Energy,2314 W Mount Pleasant St,West Burlington,IA,52655,"319-209-0347, 515-249-9435",40.827376,-91.18522999999999,2014-03-06,,HD,,
ELEC,TORRE,79125 CA-111,La Quinta,CA,92253,888-758-4389,33.7070547,-116.2838016,2014-08-11,,,,CHADEMO
CNG,Kwik Trip #204,4705 Rib Mountain Dr,Wausau,WI,54401,715-843-5090,44.9142409,-89.6483779,2014-04-04,,HD,,
CNG,Bronx Zoo,2300 Southern Blvd,Bronx,NY,10460,,40.85076711,-73.88129351,2014-04-04,,MD,,
ELEC,Blink Network (2nd Avenue),430 S. 2nd Avenue,Phoenix,AZ,85003,888-998-2546,33.443432,-112.077437,2014-08-11,,,,CHADEMO J1772
E85,Elkton One Stop Shop - Ignash Petroleum Clark Station,5083 Whalen St,Elkton,MI,48731,989-375-4163,43.8181869,-83.1832228,2014-05-02,,,TRUE,
ELEC,Florida Power & Light - Palm Beach International Airport,3800 Southern Blvd,West Palm Beach,FL,33406,,26.6775722,-80.1002651,2012-06-30,,,,J1772
E85,Edwards Air Force Base,114 S Wolfe Ave,Edwards AFB,CA,93523,,34.919864,-117.89552,2014-08-05,,,FALSE,
E85,Kum & Go #571,900 E Mount Vernon Blvd,Mount Vernon,MO,65712,417-461-0762,37.0943123,-93.8089902,2014-03-06,,,FALSE,
E85,Road Ranger,6070 Gardner St,South Beloit,IL,61080,815-264-4311,42.491081,-88.999361,2013-10-31,,,FALSE,
ELEC,FVRC UNIT 1,910 N Gary Ave,Carol Stream,IL,60188,888-758-4389,41.9280054,-88.1218468,2014-08-11,,,,J1772
E85,Carlson's Northside,1927 Maple Ave,Slayton,MN,56172,507-836-6123,43.9939897,-95.7533691,2014-03-06,,,TRUE,
CNG,City of Milwaukee - Lincoln Avenue - Public Access,3921 W Lincoln Ave,Milwaukee,WI,53215,414-286-2286,43.001528,-87.964148,2013-10-31,,HD,,
ELEC,Fry's Electronics,1800 Kalama River Ave,Fountain Valley,CA,92708,714-378-4400,33.7002432,-117.9401496,2012-12-31,,,,
ELEC,McDonald's #18516 - W. A Street - Hayward CA,355 West A. Street,Hayward,CA,94541,888-998-2546,37.666474,-122.106325,2014-08-11,,,,J1772
E85,Warrensburg Mobil,3624 SR 9,Lake George,NY,12845,518-623-9492,43.487564,-73.75785599999999,2014-04-04,,,FALSE,
BD,Wilmette Park District - West Park Facility,3555 Lake Ave,Wilmette,IL,60091,,42.0794769,-87.7614992,2013-10-31,,,,
LPG,Frito Lay - Southgate,12862 Reeck Rd,Southgate,MI,48195,,42.215584,-83.224752,2014-04-04,,,,
BD,Redstone Arsenal,Patriot Dr,Huntsville,AL,35898,,34.666376,-86.629515,2014-08-05,,,,
ELEC,350GREEN,9031 Rosecrans Ave,Bellflower,CA,90706,888-758-4389,33.9040539,-118.1418976,2014-08-11,,,,J1772
ELEC,University of Phoenix - 4025 S Riverpoint Parkway South Garage 1st Level,4025 S Riverpoint Parkway,Phoenix,AZ,85040,888-998-2546,33.412475,-112.014045,2014-08-11,,,,J1772
ELEC,TPU,2216 N 30th St,Tacoma,WA,98407,888-758-4389,47.274662,-122.4667664,2014-08-11,,,,NEMA520 J1772
BD,Franklin County - North Carolina DOT,NC 39 Highway S,Bunn,NC,27508,,35.942469,-78.250178,2013-06-30,,,,
LPG,Hicksgas,2526 N Water st,Decatur,IL,62526,217-428-4656,39.8699903,-88.9548543,2013-02-28,,,,
ELEC,ROSENBLUM,226 Great Oaks Blvd,Albany,NY,12203,888-758-4389,42.6821987,-73.8481987,2014-08-11,,,,J1772
ELEC,McCoy Mills Ford,700 W Commonwealth Ave,Fullerton,CA,92832,,33.87015,-117.938,2012-08-31,,,,J1772
BD,American Homegrown Fuel Corp - First Coast Biofuels,1170 W US Highway 90,Lake City,FL,32055,386-754-2616,30.18535,-82.652605,2014-08-05,,,,
ELEC,"Walgreens - Layton, UT #2523",1171 W 2000 N Antelope Dr,Layton,UT,84041,800-663-5633,41.089168,-111.98698,2014-08-11,,,,J1772
ELEC,King County - Fauntleroy Ferry Dock,4829 SW Barton St,Seattle,WA,98136,,47.5232197,-122.3939938,2013-06-25,,,,J1772
ELEC,CONTRA COSTA,1450 Treat Blvd,Walnut Creek,CA,94597,888-758-4389,37.9261261,-122.0524759,2014-08-11,,,,J1772
ELEC,Hansel Ford Lincoln,3705 Corby Ave,Santa Rosa,CA,95407,877-398-1876,38.4018624,-122.7184484,2014-03-06,,,,J1772
ELEC,NYC FLEET,"Olmsted Center, Roosevelt Avenue Queens",NEW York,NY,11368,888-758-4389,40.7510747,-73.8500598,2014-08-11,,,,J1772
ELEC,CERRITOS CC,11204-11210 Alondra Blvd,Norwalk,CA,90650,888-758-4389,33.8874733,-118.0951275,2014-08-11,,,,J1772
LPG,Bud's Propane,E Cranston Ave & 6th St,Fowler,CO,81039,719-263-4412,38.13062,-104.022,2013-02-28,,,,
LNG,United Parcel Service,1735 S Turner Ave,Ontario,CA,91761,909-827-9944,34.0355999,-117.5846428,2014-05-02,,HD,,
CNG,Clean N' Green - Waste Management,1525 B St,Forest Grove,OR,97116,,45.513488,-123.114866,2014-08-05,,HD,,
ELEC,Alamo Drafthouse,20575 E Hampton Plaza,Ashburn,VA,20147,703-293-6828,39.051411,-77.45425,2013-12-31,,,,J1772
LPG,Matheson TRIGAS,10110 Smith-Calhoun Rd,Plain City,OH,43064,614-873-4695,40.0918783,-83.24877169999999,2014-03-06,,,,
ELEC,Comfort Inn near Plano Medical Center,5021 West Plano Parkway,Plano,TX,75093,888-998-2546,33.01727,-96.797848,2014-08-11,,,,J1772
ELEC,Mid City Nissan,4444 W Irving Park Rd,Chicago,IL,60641,773-282-6200,41.953683,-87.7396481,2014-04-21,,,,J1772
LPG,Suburban Propane,278 W Beacon St,Philadelphia,MS,39350,601-656-2562,32.7715549,-89.1210532,2014-06-03,,,,
CNG,Questar Fueling - Phoenix,1001 S 65th Ave,Phoenix,AZ,85043,,33.4388672,-112.1982303,2014-05-02,,HD,,
LPG,Turtle Bayou RV Park,25128 Interstate 10 E,Wallisville,TX,77597,409-389-2468,29.8387673,-94.7527616,2013-02-28,,,,
CNG,Pioneer Natural Resources,27000 Highway 12,Trinidad,CO,81082,,37.1273995,-104.6686575,2013-12-31,,HD,,
ELEC,Salt Lake City - Street Parking,55 E 300 S,Salt Lake City,UT,84111,801-535-6630,40.7628964,-111.8894042,2014-05-02,,,,J1772
ELEC,Saint Mary's Square Garage,433 Kearny St,San Francisco,CA,94104,415-956-8106,37.7920393,-122.4043372,2012-12-31,,,,
ELEC,Five Star Nissan - Albany,1100 E Oglethorpe Blvd,Albany,GA,31705,229-436-8807,31.57122,-84.125568,2014-05-02,,,,J1772
ELEC,WALTHAM WOODS,866-908 Winter St,Waltham,MA,2451,888-758-4389,42.405444,-71.2797082,2014-08-11,,,,J1772
ELEC,City of Del Mar-Beach Safety Center,1690 Coast Blvd,Del Mar,CA,92014,888-998-2546,32.96254201,-117.26782537,2014-08-11,,,,J1772
ELEC,CARCHARGING,119 Ed Schmidt Blvd,Hutto,TX,78634,888-758-4389,30.5408459,-97.5634003,2014-08-11,,,,J1772
ELEC,City of Lafayette Library,775 W Baseline Rd,Lafayette,CO,80026,303-665-0469,40.0002509,-105.0991568,2014-02-05,,,,J1772
ELEC,Aloha Island Mart - Waipo-Gentry,94-826 Ukee St,Waipahu,HI,96797,808-676-4088,21.412014,-157.99881,2014-05-02,,,,CHADEMO
ELEC,AAA - Peoria,7422 W. Thunderbird Rd.,Peoria,AZ,85381,888-998-2546,33.611151,-112.218644,2014-08-11,,,,J1772
ELEC,Premier Nissan,1120 W Capitol Expy,San Jose,CA,95136,408-978-1234,37.275144,-121.877656,2014-06-03,,,,J1772 CHADEMO
LPG,Thomas' Automotive,8201 N 56th St,Lincoln,NE,68514,402-261-0531,40.893558,-96.644661,2014-06-03,,,,
E85,Qik-n-EZ #61,1230 Toronto Rd,Springfield,IL,62712,217-585-1230,39.7141276,-89.6281198,2013-10-31,,,FALSE,
ELEC,Florida Power & Light - Customer Service East,6001 Village Blvd,West Palm Beach,FL,33407,,26.764079,-80.101516,2012-06-30,,,,J1772
ELEC,Ralph's #292 Santa Monica,1644 Cloverfield Ave,Santa Monica,CA,90404,888-998-2546,34.027125,-118.47324,2014-08-11,,,,J1772
LPG,U-Haul,3587 E Apple Ave,Muskegon,MI,49442,231-777-3921,43.2342648,-86.1551576,2014-05-02,,,,
ELEC,Bob Bell Ford,7125 Ritchie Hwy,Glen Burnie,MD,21061,800-604-6303,39.179728,-76.613981,2013-12-31,,,,J1772
CNG,Trillium CNG - San Diego Metropolitan Transit System,120 Imperial Ave,San Diego,CA,92101,,32.70598,-117.153,2014-08-05,,MD,,
ELEC,Lee Nissan,4801 Ward Blvd,Wilson,NC,27893,252-237-4400,35.723778,-77.893467,2014-05-02,,,,J1772
ELEC,Sheldon Town Center,8973 Grant Line Rd,Elk Grove,CA,95624,916-869-8017,38.4316103,-121.2998363,2013-03-31,,,,J1772
ELEC,Coulter Nissan,13301 N Autoshow Ave,Surprise,AZ,85388,623-934-3444,33.6053643,-112.420275,2014-06-03,,,,J1772
CNG,Piedmont Natural Gas - Nashville,83 Century Blvd,Nashville,TN,37214,800-752-7504,36.1441467,-86.679898,2014-08-05,,MD,,
LNG,Clean Energy - West Branch,110 Tidewater Dr,West Branch,IA,52358,866-809-4869,41.662728,-91.34018540000001,2014-04-04,,HD,,
CNG,New Jersey Department of Transportation - Cherry Hill Facility,Route 70 & Frontage Rd,Cherry Hill,NJ,8034,,39.9105,-74.986042,2014-06-03,,HD,,
ELEC,Maita's Nissan of Sacramento,2820 Auburn Blvd,Sacramento,CA,95821,916-488-5400,38.6311894,-121.396736,2014-04-21,,,,J1772
ELEC,CARCHARGING,16015 Cleveland St,Redmond,WA,98052,888-758-4389,47.6743736,-122.1271667,2014-08-11,,,,NEMA520 J1772
ELEC,City of Renton - City Shops,3555 NE 2nd St,Renton,WA,98056,,47.4838573,-122.1717172,2014-06-03,,,,J1772
ELEC,SAN BENITO CO.,2301 Technology Pkwy,Hollister,CA,95023,888-758-4389,36.8906402,-121.399023,2014-08-11,,,,J1772
ELEC,BARKLEY VILLAGE,3005 Cinema Place,Bellingham,WA,98226,888-758-4389,48.7704459,-122.4470965,2014-08-11,,,,J1772
ELEC,Kwik Trip #681,4400 O'Day Ave NE,St. Michael,MN,55376,763-497-2447,45.217558,-93.598394,2014-05-02,,,,NEMA520
ELEC,Kwik Trip #897,2033 North Ave,Sheboygan,WI,53083,920-458-6468,43.7738853,-87.7326999,2014-05-02,,,,NEMA520
ELEC,UC DAVIS TAPS,1 Shields Ave,Davis,CA,95616,888-758-4389,38.5398037,-121.7550639,2014-08-11,,,,NEMA520 J1772
ELEC,Union Station Garage L2,300 Massachusetts Ave NE,Washington,DC,20002,888-758-4389,38.89686857,-77.00604224,2013-11-30,,,,NEMA520 J1772
E85,Break Time Convenience Store #3044,3000 W Truman Blvd,Jefferson City,MO,65109,573-893-4677,38.595621,-92.231066,2014-07-02,,,FALSE,
E85,Fuel 24 - Cenex,1016 W Chestnut,Mason City,IL,62664,217-482-9620,40.2022802,-89.7128561,2013-10-31,,,FALSE,
LPG,Northern Energy,100 Farmer St,Plains,MT,59859,406-826-3461  800-683-0538,47.4598624,-114.8813595,2014-08-05,,,,
LPG,Pennsylvania Turnpike Harrison City Maintenance Facility,1012 Sandy Hill Rd,Irwin,PA,15642,,40.36486,-79.6782,2013-07-31,,,,
ELEC,Springfield - Chamber of Commerce,101 South A Street,Springfield,OR,97477,888-998-2546,44.045409,-123.023556,2014-08-11,,,,J1772
CNG,Kings County Yard,11827 S 11th Ave,Hanford,CA,93230,,36.3013443,-119.654762,2014-05-02,,HD,,
LPG,Ferrellgas,712 N Robinson Dr,Robinson,TX,76706,817-596-0123,31.492626,-97.124207,2013-02-28,,,,
BD,Fort Sill,Randolph Rd & Hand Rd,Fort Sill,OK,73503,,34.678808,-98.426439,2014-02-05,,,,
ELEC,South Mountain Community College,7050 South 24th Street,Phoenix,AZ,85042,888-998-2546,33.382744,-112.03444,2014-08-11,,,,J1772
ELEC,VALLEY MED CTR,400 S 43rd St,Renton,WA,98055,888-758-4389,47.4424296,-122.2139217,2014-08-11,,,,J1772
ELEC,BAYER,8702-8798 Chemagro Rd,KCMO,MO,64120,888-758-4389,39.1242326,-94.4762114,2014-08-11,,,,J1772
E85,Short Stop Quick Mart - Tesoro,4725 Quail Rd NE,Sauk Rapids,MN,56379,320-251-4144,45.582851,-94.066058,2014-04-04,,,TRUE,
ELEC,Alexandria Real Estate - Owens St Parking Garage,1670 Owens Street,San Francisco,CA,94158,888-998-2546,37.767288,-122.3947369,2014-08-11,,,,CHADEMO J1772
CNG,Waste Management - Altamont,10840 Altamont Pass Rd,Livermore,CA,94551,,37.748526,-121.649871,2014-08-05,,HD,,
ELEC,Lithia Nissan of Fresno,5580 N Blackstone Ave,Fresno,CA,93710,559-435-3500,36.818514,-119.789471,2014-04-21,,,,J1772
ELEC,Chandler Nissan,479 Highway 6 W,Oxford,MS,38655,,34.34172,-89.438,2014-07-03,,,,J1772
E85,Citgo - Bittersweet Bell-Mart,12495 McKinley Hwy,Mishawaka,IN,46545,574-252-5102  574-546-2342,41.6849257,-86.1095594,2014-07-03,,,FALSE,
ELEC,ZEROWASTE,685 Los Esteros Rd,San Jose,CA,95134,888-758-4389,37.4324797,-121.9529332,2014-08-11,,,,J1772
LPG,Combined Energy Services,276 Broadway,Monticello,NY,12701,845-794-1210  845-794-6226,41.6514673,-74.67318220000001,2014-04-04,,,,
ELEC,James River Air Conditioning,1905 Westmoreland St,Richmond,VA,23230,804-358-9333,37.578536,-77.48754,2012-12-31,,,,J1772
ELEC,Viva Nissan,1310 N Zaragoza Rd,El Paso,TX,79936,915-629-5500,31.724949,-106.300771,2014-04-21,,,,J1772
E85,Boondocks,228 N Highway 71,Arnolds Park,IA,51331,712-332-6062,43.3641602,-95.1352254,2014-04-04,,,TRUE,
ELEC,CARCHARGING,1050 Connecticut Ave NW,Washington,DC,20036,888-758-4389,38.9032437,-77.0414326,2014-08-11,,,,J1772
LPG,Gas Production Co Inc,8512 Howard City Edmore Rd,Vestaburg,MI,48891,989-268-5079,43.4082702,-84.92588769999999,2014-05-02,,,,
ELEC,City of San Antonio - Thousand Oaks Library,4618 Thousand Oaks,San Antonio,TX,78233,888-469-5326,29.5454821,-98.40142,2012-11-25,,,,NEMA520 J1772
LPG,U-Haul,18315 Shawley Dr,Hagerstown,MD,21740,301-790-1800,39.68898,-77.734904,2013-10-31,,,,
ELEC,McGavock Nissan Abilene,3500 S Clack St,Abilene,TX,79606,325-695-2970,32.408654,-99.771637,2014-04-21,,,,J1772
ELEC,Severn Building,5245 Greenbelt Road,College Park,MD,20740,800-663-5633,38.9980404,-76.9199156,2014-08-11,,,,J1772
E85,Farmers Union Supply Co - Cenex C-Store,1615 N 6th St,Beatrice,NE,68310,402-223-2124,40.2820777,-96.74671649999999,2014-06-03,,,FALSE,
ELEC,The Outlet Shoppes at Burlington ,448 Fashion Way,Burlington,WA,98233,888-833-2148,48.4561649,-122.338419,2013-05-31,,,,J1772 CHADEMO
ELEC,City of Seattle - Seattle Water Ops,2700 Airport Way S,Seattle,WA,98134,,47.579491,-122.3213575,2014-06-03,,,,J1772
ELEC,Cedarbrook Lodge,18525 36th Ave South,Seatac,WA,98188,888-998-2546,47.437595,-122.28737,2014-08-11,,,,J1772
ELEC,Johnson & Johnson Headquarters,1 Johnson & Johnson Plaza,New Brunswick,NJ,8933,888-998-2546,40.499537,-74.441643,2014-06-03,,,,J1772
ELEC,Sheehy Nissan of Mechanicsville,6564 Mechanicsville Pike,Mechanicsville,VA,23111,804-417-1012,37.6131927,-77.3355689,2014-05-02,,,,J1772
CNG,Picatinny Arsenal,3rd Ave,Picatinny Arsenal,NJ,7806,,40.941431,-74.570419,2013-12-31,,HD,,
BD,Propel Fuels - Shell,9190 E Stockton Blvd,Elk Grove,CA,95624,916-686-6560,38.4242257,-121.3908908,2013-11-30,,,,
E85,Pacific Pride - Interstate Oil Co,8221 Alpine Ave,Sacramento,CA,95826,530-662-5481  916-457-6572,38.536114,-121.403604,2013-08-31,,,FALSE,
ELEC,FUTURE O FLIGHT,8415 Paine Field Blvd,Mukilteo,WA,98275,888-758-4389,47.9219246,-122.2893677,2014-08-11,,,,NEMA520 J1772
ELEC,Melvin Mark - Watertower,5331 SW Macadam Ave,Portland,OR,97239,888-998-2546,45.484618,-122.676655,2014-08-11,,,,J1772
ELEC,John Howard Nissan,1733 Mileground Rd,Morgantown,WV,26505,304-292-0171,39.6454419,-79.9261232,2014-04-21,,,,J1772
E85,Fuel 24,1200 N Cheney St,Taylorville,IL,62568,217-824-3833,39.5618235,-89.3069367,2013-03-31,,,FALSE,
ELEC,PARKMERCED,100 Font Blvd,San Francisco,CA,94132,888-758-4389,37.7151871,-122.4727859,2014-08-11,,,,J1772
ELEC,Cutrubus Mitsubishi,1711 N Main St,Layton,UT,84041,877-236-9128,41.08559,-111.998,2012-08-25,,,,J1772
ELEC,Rosen Nissan of Gurnee,7000 Grand Ave,Gurnee,IL,60031,847-856-8440,42.386763,-87.975497,2014-04-21,,,,J1772
ELEC,Field Store BBQ & Grill,40203 U.S. 290,Waller,TX,77484,888-998-2546,30.0670161,-95.9197997,2014-08-11,,,,J1772
ELEC,Universal City Hilton,333 Universal Terrace Pkwy,Universal City,CA,91608,818-506-2500,34.1406014,-118.3518,2012-12-31,,,,
LPG,U-Haul,9435 N 19th Ave,Phoenix,AZ,85021,602-674-3167,33.573288,-112.099354,2013-09-30,,,,
LPG,Cooke Rentals,825 W Lebanon St,Mount Airy,NC,27030,336-789-5068,36.5192121,-80.6199255,2014-07-02,,,,
ELEC,NRG eVgo - Cracker Barrel Freedom Station,24400 Eastex Fwy,Kingwood,TX,77339,877-455-3833,30.06706,-95.24708,2014-07-03,,,,NEMA520 J1772 CHADEMO
LPG,Titan Propane,865 Chapel Dr,Monett,MO,65708,417-624-0940,36.92797,-93.9002,2014-06-03,,,,
ELEC,TOWN OF BABYLON,200 E. Sunrise Hwy,Lindenhurst,NY,11757,888-758-4389,40.7045401,-73.3748612,2014-08-11,,,,NEMA520 J1772
CNG,Waste Management - Franklin Hauling,10627 S 27th St,Franklin,WI,53132,,42.85129999999999,-87.952466,2014-08-05,,HD,,
ELEC,Firkins Nissan,1611 Cortez Rd W,Bradenton,FL,34207,941-755-1571,27.461855,-82.577737,2014-05-02,,,,J1772
ELEC,Gilroy Nissan-Hyundai,400 Stutz Way,Gilroy,CA,95020,408-842-1777,36.9967619,-121.558621,2014-04-21,,,,J1772
ELEC,Oakmont Service Plaza,200 Eastern Ave.,Verona,PA,15147,888-998-2546,40.523625,-79.815352,2014-08-11,,,,J1772
BD,Federal Correctional Institution - Yankton,1016 Douglas Ave,Yankton,SD,57078,,42.8799561,-97.3919256,2014-08-05,,,,
ELEC,Greater Hartford Transit District - Spruce Street Lot,1 Union Pl,Hartford,CT,6103,860-247-5329,41.7678481,-72.6815113,2013-09-25,,,,NEMA515 J1772
ELEC,T&C,855 El Camino Real,Palo Alto,CA,94301,888-758-4389,37.4384976,-122.1573751,2014-08-11,,,,J1772
E85,Speedway #8594,6700 Sylvania Ave,Sylvania,OH,43560,419-882-1986,41.69042,-83.7039549,2014-03-06,,,FALSE,
ELEC,Garber Nissan,5450 Bay Rd,Saginaw,MI,48604,989-790-0120,43.4877871,-83.9743457,2014-04-21,,,,J1772
LPG,U-Haul,1805 Massachusetts Ave,Lemon Grove,CA,91945,619-460-6370,32.724417700000004,-117.0396899,2014-05-02,,,,
ELEC,BEVERLY HILLS,221 N Crescent Dr,Beverly Hills,CA,90210,888-758-4389,34.0689058,-118.397785,2014-08-11,,,,J1772
ELEC,BELLEVUE,701 143rd Ave NE,Bellevue,WA,98007,888-758-4389,47.616013,-122.150649,2014-08-11,,,,J1772
LPG,Blossman Gas Inc,3918 Rockmart Hwy,Cedartown,GA,30125,770-684-7382,34.0055823,-85.1457306,2013-11-30,,,,
LPG,Grapevine Colleyville Independent School District,3000 Mustang Dr,Grapevine,TX,76051,,32.9193738,-97.1139769,2013-12-31,,,,
LPG,Suburban Propane,6459 US Highway 24 W,Remington,IN,47977,219-261-2332,40.76554,-87.166685,2014-07-03,,,,
ELEC,Deep River Library,150 Main St,Deep River,CT,6417,860-526-6039,41.3865745,-72.4359069,2013-03-31,,,,NEMA520 J1772
ELEC,Santa Clara City Library DCFC,2635 Homestead Drive,Santa Clara,CA,95051,888-998-2546,37.34062,-121.973214,2014-08-11,,,,CHADEMO
BD,CFN - Central Petroleum,755 NE 1st St,Bend,OR,97701,541-382-4751,44.0574464,-121.3063099,2014-03-06,,,,
CNG,Washington Metropolitan Area Transit Authority (WMATA) - Shepherd Parkway Bus Facility,TBD,Washington,DC,20375,,38.826107,-77.0172233,2012-04-30,,HD,,
ELEC,ROCHESTER NY,473-489 Main St E,Rochester,NY,14604,888-758-4389,43.15865,-77.59956940000001,2014-08-11,,,,J1772
ELEC,CRESCENT LOT,505 Crescent Blvd,Glen Ellyn,IL,60137,888-758-4389,41.876297,-88.0673904,2014-08-11,,,,J1772
ELEC,Kwik Trip #806,320 Mineral Spring Rd,Owatonna,MN,55060,507-455-1541,44.0898739,-93.2187886,2014-05-02,,,,NEMA520
LPG,INDOT - Shelbyville Maintenance Unit,76 E Rampart St,Shelbyville,IN,46176,,39.548206,-85.771863,2013-08-31,,,,
E85,DJ's Travel Center,459 Custer Ave NE,Huron,SD,57350,605-352-7435,44.3687529,-98.1742203,2013-11-30,,,FALSE,
ELEC,Bayview Thriftway,516 W 4th Ave,Olympia,WA,98501,360-352-4901,47.044919,-122.907576,2014-06-03,,,,NEMA520
E85,Spinx #350,6899 Rivers Ave,North Charleston,SC,29406,843-735-5496,32.9203439,-80.03018999999999,2014-08-05,,,FALSE,
ELEC,O'Hare Airport - Short Term Parking,10000 Bessie Coleman Dr,Chicago,IL,60666,,41.9812852,-87.8851447,2013-12-31,,,,J1772
E85,National Electric Service Public Utility,1214 Church St,Nashville,TN,37246,,36.159379,-86.790645,2014-08-05,,,FALSE,
HY,APCI CEC Award - Beverly Hills,1004 S. La Cienega Blvd.,Los Angeles,CA,90035,,34.05934,-118.3758128,2014-06-11,,,,
LPG,Empiregas,12270 Highway 15 N,Hazard,KY,41727,606-436-1912  800-930-8727,37.392830000000004,-83.2742,2014-07-02,,,,
ELEC,Gresham - City Hall,1333 NW Eastman Parkway,Gresham,OR,97030,888-998-2546,45.506804,-122.436103,2014-08-11,,,,J1772
CNG,Love's Country Store #218,2530 E Noble Ave,Guthrie,OK,73044,405-260-0850,35.8797463,-97.45670779999999,2014-03-06,,MD,,
CNG,Montgomery County Transit,16624 Crabbs Branch Way,Gaithersburg,MD,20855,,39.1243035,-77.163807,2013-07-31,,HD,,
ELEC,MERITAGE1,875 Bordeaux Way,Napa,CA,94558,888-758-4389,38.2463102,-122.2735862,2014-08-11,,,,J1772
LPG,Ferrellgas,1802 NW 3rd St,Grand Rapids,MN,55744,218-326-1291 800-450-5701,47.2358029,-93.5563394,2014-03-06,,,,
ELEC,Providence - Colby Campus,1800 14th St.,Everett,WA,98201,888-998-2546,47.999006,-122.205272,2014-08-11,,,,J1772
CNG,Los Angeles County Metropolitan Transportation Authority - Division 3,630 W Ave 28,Los Angeles,CA,90065,,34.0876763,-118.2238685,2014-05-02,,HD,,
ELEC,WHIRLPOOL,600 W. Main Street,Benton Harbor,MI,49022,888-758-4389,42.112675,-86.468162,2014-08-11,,,,NEMA520 J1772
BD,Pacific Pride,3037 NW 29th Ave,Portland,OR,97210,800-950-3835,45.54468860000001,-122.7110986,2014-03-06,,,,
LPG,McCraw Oil and Propane,1401 W Main St,Antlers,OK,74523,580-298-2561,34.2320824,-95.6064842,2014-08-05,,,,
E85,Propel Fuels - Chevron,350 Grand Ave,Oakland,CA,94610,510-835-2530,37.809238,-122.255662,2013-11-30,,,FALSE,
ELEC,Paul Miller Ford,975 E New Circle Rd,Lexington,KY,40505,866-572-6043,38.0401621,-84.4542985,2013-04-30,,,,J1772
E85,Kum & Go #846,100 Holiday Ln,Locust Grove,OK,74352,918-479-2210,36.1896841,-95.1606946,2014-03-06,,,FALSE,
ELEC,McGavock Nissan,4817 S Loop 289,Lubbock,TX,79424,806-783-8484,33.531798,-101.91503,2014-04-21,,,,J1772
E85,Kwik Trip #753,380 Sandstone Dr NW,Eyota,MN,55934,507-545-2120,43.997706,-92.24767,2014-05-02,,,FALSE,
ELEC,Spinx,1619 Decker Blvd,Columbia,SC,29206,888-758-4389  803-782-4151,34.042306,-80.93906,2014-06-03,,,,NEMA520 J1772
ELEC,1MCD HQ,605 Stewart Ave,Garden City,NY,11530,888-758-4389,40.7301177,-73.6142431,2014-08-11,,,,J1772
CNG,University of Northwestern Ohio,1755 Hartzler Rd,Lima,OH,45805,,40.764088,-84.1563089,2014-03-06,,LD,,
ELEC,Enterprise Rent-A-Car,284 Mallory Station Rd,Franklin,TN,37067,,35.956234,-86.827326,2014-04-07,,,,J1772
LPG,Flying J Travel Plaza 685,3150 39th St SW,Fargo,ND,58104,701-282-7766,46.83371289999999,-96.84581879999999,2014-07-02,,,,
E85,Kum & Go #658,6125 Barnes Rd,Colorado Springs,CO,80922,719-219-0685,38.8948263,-104.7145123,2014-03-06,,,FALSE,
E85,Kwik Trip #455,100 W 9th St N,Ladysmith,WI,54848,715-532-3117,45.4641585,-91.1111437,2014-05-02,,,FALSE,
CNG,Clean Energy - PS Energy - East Point,2192 Sylvan Rd,East Point,GA,30344,866-809-4869,33.6944411,-84.4182967,2014-07-02,,MD,,
E85,Road Ranger #237,909 E Roosevelt Rd,Lombard,IL,60148,815-239-6028,41.860475,-87.994817,2014-06-03,,,FALSE,
LPG,P & D Petroleum,602 Tatum Hwy,Lovington,NM,88260,575-396-4822,32.9901748,-103.3174877,2013-02-28,,,,
ELEC,South Carolina Electric Co-op,808 Knox Abbott Dr,Cayce,SC,29033,843-743-6736,33.9828431,-81.061524,2012-07-31,,,,J1772
ELEC,STATION1,Western Army Aviation Training Site,Marana,AZ,85653,888-758-4389,34.0808966,-111.0735581,2014-08-11,,,,J1772
LPG,AmeriGas,522 S Vermont St,Palatine,IL,60067,847-359-6450,42.100655,-88.038235,2013-02-28,,,,
ELEC,CITY OF SEATAC,4800 S 188th St,SeaTac,WA,98188,888-758-4389,47.4338361,-122.2726043,2014-08-11,,,,NEMA520 J1772
ELEC,"Walgreens - Bel Air, MD #11999",1927 Emmorton Rd,Bel Air,MD,21015,800-663-5633,39.5019452,-76.3265292,2014-08-11,,,,J1772
CNG,Elk Grove School District,8421 Gerber Rd,Sacramento,CA,95828,,38.4817493,-121.3921702,2014-05-02,,HD,,
ELEC,Southpark Garage - NPM,914 SW Taylor,Portland,OR,97205,888-998-2546,45.518463,-122.682247,2014-08-11,,,,J1772
LPG,Mission 76,28900 Mission Blvd,Hayward,CA,94544,510-582-3995,37.63477,-122.051887,2014-05-02,,,,
LPG,Geldbach Petroleum Co,100 Beckett Memorial Dr,Valley Park,MO,63088,636-225-3601  800-798-4107,38.5532899,-90.489053,2014-06-03,,,,
ELEC,Main Street Video,110 N Main St,Le Sueur,MN,56058,612-636-6222,44.4614962,-93.9153881,2014-03-06,,,,NEMA520
LNG,Clean Energy - Shreveport Flying J #665,9510 Greenwood Rd,Greenwood,LA,71033,866-809-4869,32.444772,-93.97901,2014-04-04,,HD,,
LPG,V-1 Propane,817 N 10th St,Worland,WY,82401,307-347-9204,44.024173,-107.9558928,2014-03-06,,,,
ELEC,Ramsey Nissan,401 Route 17 S,Upper Saddle River,NJ,7458,201-825-4040,41.053468,-74.120185,2014-04-21,,,,J1772
E85,Qik-n-EZ #60,1510 E Vernon Ave,Normal,IL,61761,309-452-8515,40.503216,-88.954796,2013-10-31,,,TRUE,
ELEC,Weseloh Nissan,33633 Camino Capistrano,San Juan Capistrano,CA,92675,949-234-4900,33.4747119,-117.676201,2014-04-21,,,,J1772
ELEC,Bellevue College - Garage,"3000 Landerholm Cir SE, Kelsy Creek Rd & Tye River Rd",Bellevue,WA,98007,888-998-2546,47.585655,-122.147284,2014-08-11,,,,J1772
ELEC,GEORGIA STATE,11-33 Auditorium Pl SE,Atlanta,GA,30303,888-758-4389,33.7533873,-84.3838186,2014-08-11,,,,J1772
BD,Vance Air Force Base,Scott Dr,Enid,OK,73701,,36.339742,-97.916156,2014-08-05,,,,
LPG,Snyder Propane,280 State Highway 80,Fort Plain,NY,13339,518-993-2626  800-721-0313,42.9288753,-74.6640579,2013-02-28,,,,
ELEC,Hall Nissan - Virginia Beach,3769 Booney Rd,Virginia Beach,VA,23452,757-631-7600,36.838989,-76.102433,2014-05-02,,,,J1772
ELEC,Macy's #71-555 - Otay Ranch Town Center - Chula Vista CA,2015 Birch Road,Chula Vista,CA,91915,888-998-2546,32.62181,-116.9658995,2014-08-11,,,,J1772
E85,Kent's Korner #25 - Exxon,111 Jefferson Davis Hwy,Aiken,SC,29801,803-649-1180,33.5614333,-81.7792193,2013-05-31,,,FALSE,
LPG,Ferrellgas,1072 Fourche Ave,Perryville,AR,72126,501-889-5144,35.013566,-92.79827999999999,2014-04-04,,,,
ELEC,MOLLIE STONES,164 S California Ave,Palo Alto,CA,94306,888-758-4389,37.4287102,-122.1431565,2014-08-11,,,,J1772
E85,Super Pantry #52,1511 N Prospect Ave,Champaign,IL,61820,217-355-3354,40.131707,-88.25837299999999,2014-05-02,,,FALSE,
ELEC,Purdue University,812 3rd St,West Lafayette,IN,47907,855-443-3873,40.4277617,-86.9162607,2014-04-04,,,,J1772
CNG,Trillium CNG - Honda Parkway,24000 Honda Pkwy,Marysville,OH,43040,800-920-1166,40.278754,-83.508379,2014-08-05,,HD,,
E85,Evergreen FS Farmtown,1808 Morrissey Dr,Bloomington,IL,61704,309-662-9321,40.4540189,-88.9678776,2013-10-31,,,TRUE,
LPG,INDOT - Martinsville Maintenance Unit,1188 Lenvoil Rd,Martinsville,IN,46151,,39.3946172,-86.3738635,2013-08-31,,,,
ELEC,WALNUT CREEK,1666 N. Main street,Walnut Creek,CA,94596,888-758-4389,37.9009829,-122.0612849,2014-08-11,,,,J1772
ELEC,VEIC,128 Lakeside Ave,Burlington,VT,5401,888-758-4389,44.4617544,-73.21784749999999,2014-08-11,,,,J1772
ELEC,NATIONAL GRID,724 W Center St,West Bridgewater,MA,2379,888-758-4389,42.0120049,-71.0499115,2014-08-11,,,,J1772
E85,Thorntons #400,1600 S US 31,Greenwood,IN,46143,317-882-2869,39.5938771,-86.1032537,2014-07-02,,,FALSE,
LNG,Blu LNG - Blu Fuel Stop,2222 136th Ave E,Sumner,WA,98390,801-977-7252,47.236945,-122.249796,2014-05-02,,HD,,
ELEC,Wagon Wheel Restaurant,227 NW Garden Valley Blvd,Roseburg,OR,97470,888-833-2148  541-672-7555,43.226537,-123.355803,2014-05-02,,,,J1772 CHADEMO
ELEC,Lot 105 - Joyce Kilmer Avenue,79 Joyce Kilmer Ave,Piscataway Township,NJ,8854,888-998-2546,40.523407,-74.434016,2014-08-11,,,,J1772
ELEC,Clear Lake Nissan,2150 Gulf Fwy,League City,TX,77573,281-557-5300,29.485334,-95.10187,2014-04-21,,,,J1772
ELEC,Boucher Nissan - Waukesha,1451 E Moreland Blvd,Waukesha,WI,53186,262-542-5500,43.024353,-88.20646,2014-04-21,,,,J1772
ELEC,HP PALO ALTO,3126-3202 Hanover St,Palo Alto,CA,94304,888-758-4389,37.4120262,-122.1464912,2014-08-11,,,,J1772
LPG,Arundel Gas and Water Conditioning,3177 Solomons Island Rd,Edgewater,MD,21037,410-956-2400,38.933915999999996,-76.56640800000001,2014-03-06,,,,
E85,Alabama State Motor Pool,386 S Ripley St,Montgomery,AL,36104,,32.372589,-86.298802,2012-11-30,,,FALSE,
ELEC,Ground Round Grill & Bar - Tesla,1290 Ryans Rd,Worthington,MN,56187,877-798-3752,43.634433,-95.595456,2014-04-21,,,,TESLA
ELEC,BORGESS HEALTH,1521 Gull Rd,Kalamazoo,MI,49048,888-758-4389,42.3077489,-85.5617481,2014-08-11,,,,NEMA520 J1772
ELEC,Rivers Casino,3000 S River Rd,Des Plains,IL,60018,,41.9990813,-87.8641784,2013-07-31,,,,J1772
LPG,Ferrellgas,26585 Highway 281 N,San Antonio,TX,78260,210-661-6700,29.69429,-98.452971,2013-02-28,,,,
ELEC,Mayo Clinic - Shea Blvd.,"13400 E. Shea Blvd, (Parking Garage Level 1)",Scottsdale,AZ,85259,888-998-2546,33.5857641,-111.7935598,2014-08-11,,,,J1772
E85,Cenex - Heart of Iowa Co-op,633 Market Ave,Story City,IA,50248,515-733-4358,42.18877,-93.60045199999999,2014-04-04,,,FALSE,
E85,Speedway #5064,2920 Shroyer Rd,Kettering,OH,45419,937-299-4640,39.70427,-84.16194,2014-03-06,,,FALSE,
ELEC,CARCHARGING,214 W 88th St,New York,NY,10024,888-758-4389,40.7892181,-73.9749593,2014-08-11,,,,NEMA520 J1772
ELEC,CITYOF MUSKEGON,1058-1096 5th St,Muskegon,MI,49440,888-758-4389,43.2335472,-86.2554779,2014-08-11,,,,NEMA520 J1772
ELEC,Ann Arbor DDA - Maynard Parking Structure,316 Maynard St,Ann Arbor,MI,48104,734 994-6697,42.278678,-83.742637,2014-07-03,,,,J1772
ELEC,AFP EV CHARGERS,1 S Almaden Blvd,San Jose,CA,95113,888-758-4389,37.3334193,-121.895282,2014-08-11,,,,J1772
LPG,U-Haul,10621 S Main St,Houston,TX,77025,713-668-7144,29.669841,-95.4336654,2013-12-31,,,,
BD,Maxwell Air Force Base,30 N Selfridge St,Montgomery,AL,36112,,32.373972,-86.3516683,2014-08-05,,,,
CNG,San Diego Marine Corps Recruit Depot,4580 Belleau Woods Ave,San Diego,CA,92140,,32.74065,-117.187,2013-12-31,,HD,,
LPG,West Plains Propane Inc,508 Lincoln Ave,West Plains,MO,65775,417-256-3470,36.7321594,-91.8549288,2014-06-03,,,,
LPG,U-Haul,5210 Jefferson Davis Hwy,Richmond,VA,23234,804-275-9488,37.451137,-77.4423939,2013-10-31,,,,
LPG,Suburban Propane,276 14th St,Elko,NV,89801,775-738-3151,40.8386985,-115.7534301,2013-02-28,,,,
E85,Jay's Garage,734 SE 7th Ave,Portland,OR,97214,503-239-5167,45.5175188,-122.6583207,2014-03-06,,,FALSE,
ELEC,Joel D Valdez Library,50 W. Alameda Street,Tucson,AZ,85701,888-998-2546,32.224307,-110.972385,2014-08-11,,,,J1772
ELEC,BMW CHARGERS,371 Hitchcock Way,Santa Barbara,CA,93105,888-758-4389,34.4340975,-119.746084,2014-08-11,,,,J1772
ELEC,UMD COLLEGEPARK,4116-4138 Mowatt Ln,College Park,MD,20740,888-758-4389,38.9822044,-76.9461288,2014-08-11,,,,NEMA520 J1772
ELEC,Giles Nissan,6137 Johnston St,Lafayette,LA,70503,337-988-1920,30.16416,-92.081478,2014-04-21,,,,J1772
ELEC,LIFEBRIDGE,2401 West Belvedere Ave,Baltimore,MD,21215,888-758-4389,39.352624,-76.661965,2014-08-11,,,,NEMA520 J1772
E85,Federal Correctional Complex - Pollock,1000 Airbase Rd,Pollack,LA,71467,,31.4651594,-92.43285329999999,2014-08-05,,,FALSE,
ELEC,Publix,601 S Andrews Ave,Fort Lauderdale,FL,33301,954-728-8330,26.1142359,-80.143818,2014-08-05,,,,J1772
ELEC,Tischer Nissan,3510 Ft Meade Rd,Laurel,MD,20724,301-498-3322,39.1010445,-76.8216711,2014-04-21,,,,J1772
LPG,U-Haul,5621 Allentown Blvd,Harrisburg,PA,17112,717-657-2010,40.3204805,-76.7916701,2014-08-05,,,,
E85,Break Time Convenience Store #3123,1211 E Grand St,Springfield,MO,65804,417-864-5290,37.196895,-93.27578000000001,2014-07-03,,,FALSE,
ELEC,McFarland Ford,151 Portsmouth Ave,Exeter,NH,3833,,42.9912455,-70.927825,2014-05-02,,,,NEMA520 J1772
E85,Get N Go #20,2421 S Minnesota Ave,Sioux Falls,SD,57105,605-271-5794,43.5224463,-96.7314739,2013-11-30,,,FALSE,
ELEC,Asheville Chevrolet,205 Smokey Park Hwy,Asheville,NC,28806,,35.563115,-82.630535,2014-07-03,,,,J1772
E85,PS Energy - UFO,340 Whitehall St SW,Atlanta,GA,30303,,33.7459368,-84.3990588,2013-08-31,,,FALSE,
